{"organizations": [{"name": "GLOBALFOUNDRIES", "title": "Sr Mgr/Dep Dir Facilities Engn", "customType": "work", "primary": true, "location": "J10347", "department": "SS TOOL INSTALL"}], "primaryEmail": "christopher.merrill@globalfoundries.com", "addresses": [{"locality": "Malta", "country": "United States", "region": "New York", "formatted": "Bldg: Malta Malta New York NY 12020 United States", "primary": true, "streetAddress": "Bldg: Malta", "postalCode": "NY 12020", "type": "work"}], "phones": [{"type": "work", "value": "69074"}, {"type": "home", "value": "+15183059074"}, {"type": "mobile", "value": "+15188175502"}, {"type": "work_fax", "value": "+15183051043"}], "relations": [{"type": "manager", "value": "Steven.Thompson@globalfoundries.com"}], "children": [{"addresses": [{"locality": "Malta", "country": "United States", "region": "New York", "primary": true, "formatted": "Bldg: Malta Malta New York NY 12020 United States", "streetAddress": "Bldg: Malta", "postalCode": "NY 12020", "type": "work"}], "phones": [{"type": "work", "value": "66182"}, {"type": "home", "value": "+15183056182"}, {"type": "mobile", "value": "+15188605869"}], "isDelegatedAdmin": false, "thumbnailPhotoEtag": "\"CAca-r_AOtaWjq33oriROyUcbFY/i9VXKyYbeMfl1x0-x8iSOnwzBlU\"", "suspended": false, "id": "101310609590454355319", "nonEditableAliases": ["darren.thomas@globalfoundries.com.test-google-a.com", "darren.thomas@gp.globalfoundries.com"], "thumbnailPhotoUrl": "https://plus.google.com/_/focus/photos/private/AIbEiAIAAABDCPeKgrKoj46YEiILdmNhcmRfcGhvdG8qKGNjNGRkMzE3Yzk3NDJhMTQ0MjVjMmMwZDM4MGVjMmY3MzE5N2NmYmEwAe9wxUmwi54oJmvWqovzZoXVc4xH", "includeInGlobalAddressList": true, "relations": [{"type": "manager", "value": "Christopher.Merrill@globalfoundries.com"}], "children": [{"organizations": [{"name": "FST Technical Services", "title": "Contractor", "customType": "work", "primary": true, "location": "J10453", "department": "SS TOOL INSTALL"}], "primaryEmail": "acie.crider@globalfoundries.com", "addresses": [{"locality": "Malta", "country": "United States", "region": "New York", "formatted": "Malta New York NY 12020 United States", "primary": true, "postalCode": "NY 12020", "type": "work"}], "phones": [{"type": "work", "value": "66562"}, {"type": "home", "value": "+15183056562"}], "relations": [{"type": "manager", "value": "Darren.Thomas@globalfoundries.com"}], "emails": [{"type": "custom", "primary": true, "address": "acie.crider@globalfoundries.com"}], "name": {"fullName": "Acie Crider", "givenName": "Acie", "familyName": "Crider"}}, {"organizations": [{"name": "FST Technical Services", "title": "Contractor", "customType": "work", "primary": true, "location": "J10443", "department": "SS TOOL INSTALL"}], "primaryEmail": "alan.bode@globalfoundries.com", "addresses": [{"locality": "Malta", "country": "United States", "region": "New York", "formatted": "Bldg: Malta Malta New York NY 12020 United States", "primary": true, "streetAddress": "Bldg: Malta", "postalCode": "NY 12020", "type": "work"}], "phones": [{"type": "work", "value": "61776"}, {"type": "home", "value": "+15183051776"}], "relations": [{"type": "manager", "value": "Darren.Thomas@globalfoundries.com"}], "emails": [{"type": "custom", "primary": true, "address": "alan.bode@globalfoundries.com"}], "name": {"fullName": "Alan Bode", "givenName": "Alan", "familyName": "Bode"}}, {"organizations": [{"department": "SS TOOL INSTALL", "customType": "work", "primary": true, "name": "FST Technical Services", "title": "Contractor"}], "primaryEmail": "albert.cruz@globalfoundries.com", "addresses": [{"locality": "Malta", "country": "United States", "region": "New York", "formatted": "Malta New York NY 12020 United States", "primary": true, "postalCode": "NY 12020", "type": "work"}], "relations": [{"type": "manager", "value": "Darren.Thomas@globalfoundries.com"}], "emails": [{"type": "custom", "primary": true, "address": "albert.cruz@globalfoundries.com"}], "name": {"fullName": "Albert Cruz", "givenName": "Albert", "familyName": "Cruz"}}, {"organizations": [{"department": "SS TOOL INSTALL", "customType": "work", "primary": true, "name": "AM Technical Solutions", "title": "Contractor"}], "primaryEmail": "aleksei.belousov@globalfoundries.com", "addresses": [{"locality": "Malta", "country": "United States", "region": "New York", "formatted": "Malta New York NY 12020 United States", "primary": true, "postalCode": "NY 12020", "type": "work"}], "relations": [{"type": "manager", "value": "Darren.Thomas@globalfoundries.com"}], "emails": [{"type": "custom", "primary": true, "address": "aleksei.belousov@globalfoundries.com"}], "name": {"fullName": "Aleksei Belousov", "givenName": "Aleksei", "familyName": "Belousov"}}, {"organizations": [{"department": "SS TOOL INSTALL", "customType": "work", "primary": true, "name": "AM Technical Solutions", "title": "Contractor"}], "primaryEmail": "alex.flores@globalfoundries.com", "addresses": [{"locality": "Malta", "country": "United States", "region": "New York", "formatted": "Malta New York NY 12020 United States", "primary": true, "postalCode": "NY 12020", "type": "work"}], "relations": [{"type": "manager", "value": "Darren.Thomas@globalfoundries.com"}], "emails": [{"type": "custom", "primary": true, "address": "alex.flores@globalfoundries.com"}], "name": {"fullName": "Alex Flores", "givenName": "Alex", "familyName": "Flores"}}, {"organizations": [{"name": "AM Technical Solutions", "title": "Contractor", "customType": "work", "primary": true, "location": "M104", "department": "SS TOOL INSTALL"}], "primaryEmail": "allison.rice@globalfoundries.com", "addresses": [{"locality": "Malta", "country": "United States", "region": "New York", "formatted": "Malta New York NY 12020 United States", "primary": true, "postalCode": "NY 12020", "type": "work"}], "phones": [{"type": "work", "value": "61464"}, {"type": "home", "value": "+15183051464"}], "relations": [{"type": "manager", "value": "Darren.Thomas@globalfoundries.com"}], "emails": [{"type": "custom", "primary": true, "address": "allison.rice@globalfoundries.com"}], "name": {"fullName": "Allison Rice", "givenName": "Allison", "familyName": "Rice"}}, {"organizations": [{"name": "AM Technical Solutions", "title": "Contractor", "customType": "work", "primary": true, "location": "J10350", "department": "SS TOOL INSTALL"}], "primaryEmail": "amanda.robillard@globalfoundries.com", "addresses": [{"locality": "Malta", "country": "United States", "region": "New York", "formatted": "Malta New York NY 12020 United States", "primary": true, "postalCode": "NY 12020", "type": "work"}], "phones": [{"type": "work", "value": "67857"}, {"type": "home", "value": "+15183057857"}], "thumbnailPhotoUrl": "https://plus.google.com/_/focus/photos/public/AIbEiAIAAABDCJu93s74j4vSYiILdmNhcmRfcGhvdG8qKGQ5ZWM3YTgzYjRhY2MyNjFjY2RmYjI3YTJiM2M2YTI3YjNiOTg0YWYwAWD-xDj75lsW2ziB59g7wVexMn2w", "relations": [{"type": "manager", "value": "Darren.Thomas@globalfoundries.com"}], "emails": [{"type": "custom", "primary": true, "address": "amanda.robillard@globalfoundries.com"}], "name": {"fullName": "Amanda Robillard", "givenName": "Amanda", "familyName": "Robillard"}}, {"organizations": [{"name": "AM Technical Solutions", "title": "Contractor", "customType": "work", "primary": true, "location": "M022", "department": "SS TOOL INSTALL"}], "primaryEmail": "amanda.wain@globalfoundries.com", "addresses": [{"locality": "Malta", "country": "United States", "region": "New York", "formatted": "Bldg: Malta Malta New York NY 12020 United States", "primary": true, "streetAddress": "Bldg: Malta", "postalCode": "NY 12020", "type": "work"}], "phones": [{"type": "work", "value": "69692"}, {"type": "home", "value": "+15183059692"}], "thumbnailPhotoUrl": "https://plus.google.com/_/focus/photos/private/AIbEiAIAAABECLvolvrGm6bKzgEiC3ZjYXJkX3Bob3RvKig5MDExNjNkZjQ4YTdhOTQ1ZmRmYzY4NWQwYWMyN2U4MWM1M2M0YzFiMAER846R2dQ3aj7JRS24NYG7DE8tLw", "relations": [{"type": "manager", "value": "Darren.Thomas@globalfoundries.com"}], "emails": [{"type": "custom", "primary": true, "address": "amanda.wain@globalfoundries.com"}], "name": {"fullName": "Amanda Wain", "givenName": "Amanda", "familyName": "Wain"}}, {"organizations": [{"name": "AM Technical Solutions", "title": "Contractor", "customType": "work", "primary": true, "location": "J10421", "department": "SS TOOL INSTALL"}], "primaryEmail": "anastasia.morris@globalfoundries.com", "addresses": [{"locality": "Malta", "country": "United States", "region": "New York", "formatted": "Malta New York NY 12020 United States", "primary": true, "postalCode": "NY 12020", "type": "work"}], "phones": [{"type": "work", "value": "66318"}, {"type": "home", "value": "+15183056318"}], "thumbnailPhotoUrl": "https://plus.google.com/_/focus/photos/private/AIbEiAIAAABDCPbBl8z_vY2sXyILdmNhcmRfcGhvdG8qKDBkMzY2ZDdiNjAxNzg4ZDVkOTJiYjAyZDA4MWEzNDVlYmEyYWMwMjcwAffh4pxiWpHpYyUVxIIMKqh19PVc", "relations": [{"type": "manager", "value": "Darren.Thomas@globalfoundries.com"}], "emails": [{"type": "custom", "primary": true, "address": "anastasia.morris@globalfoundries.com"}], "name": {"fullName": "Anastasia Morris", "givenName": "Anastasia", "familyName": "Morris"}}, {"organizations": [{"name": "AM Technical Solutions", "title": "Contractor", "customType": "work", "primary": true, "location": "J10478T", "department": "SS TOOL INSTALL"}], "primaryEmail": "anna.derose-catano@globalfoundries.com", "addresses": [{"locality": "Malta", "country": "United States", "region": "New York", "formatted": "Malta New York NY 12020 United States", "primary": true, "postalCode": "NY 12020", "type": "work"}], "phones": [{"type": "work", "value": "61692"}, {"type": "home", "value": "+15183051692"}], "thumbnailPhotoUrl": "https://plus.google.com/_/focus/photos/private/AIbEiAIAAABECPughrmCkLy81wEiC3ZjYXJkX3Bob3RvKihhOTY3ZWQzN2ZkZTJmNjI0YjU1OTYxMTZkM2JiMzI2ODU3OTdmYjllMAFrWCS84mD-PNaAGv5SFo0k-zA0PA", "relations": [{"type": "manager", "value": "Darren.Thomas@globalfoundries.com"}], "emails": [{"type": "custom", "primary": true, "address": "anna.derose-catano@globalfoundries.com"}], "name": {"fullName": "Anna DeRose-Catano", "givenName": "Anna", "familyName": "DeRose-Catano"}}, {"organizations": [{"name": "FST Technical Services", "title": "Contractor", "customType": "work", "primary": true, "location": "J10442", "department": "SS TOOL INSTALL"}], "primaryEmail": "anthony.orange@globalfoundries.com", "addresses": [{"locality": "Malta", "country": "United States", "region": "New York", "formatted": "Bldg: Malta Malta New York NY 12020 United States", "primary": true, "streetAddress": "Bldg: Malta", "postalCode": "NY 12020", "type": "work"}], "phones": [{"type": "work", "value": "69784"}, {"type": "home", "value": "+15183059784"}], "relations": [{"type": "manager", "value": "Darren.Thomas@globalfoundries.com"}], "emails": [{"type": "custom", "primary": true, "address": "anthony.orange@globalfoundries.com"}], "name": {"fullName": "Anthony Orange", "givenName": "Anthony", "familyName": "Orange"}}, {"organizations": [{"name": "AM Technical Solutions", "title": "Contractor", "customType": "work", "primary": true, "location": "J10409", "department": "SS TOOL INSTALL"}], "primaryEmail": "anthony.ortiz@globalfoundries.com", "addresses": [{"locality": "Malta", "country": "United States", "region": "New York", "formatted": "Bldg: Malta Malta New York NY 12020 United States", "primary": true, "streetAddress": "Bldg: Malta", "postalCode": "NY 12020", "type": "work"}], "phones": [{"type": "work", "value": "69773"}, {"type": "home", "value": "+15183059773"}, {"type": "mobile", "value": "+15189447365"}], "relations": [{"type": "manager", "value": "Darren.Thomas@globalfoundries.com"}], "emails": [{"type": "custom", "primary": true, "address": "anthony.ortiz@globalfoundries.com"}], "name": {"fullName": "Anthony Ortiz", "givenName": "Anthony", "familyName": "Ortiz"}}, {"organizations": [{"department": "SS TOOL INSTALL", "customType": "work", "primary": true, "name": "FST Technical Service", "title": "Contractor"}], "primaryEmail": "anthony.smith@globalfoundries.com", "addresses": [{"locality": "Malta", "country": "United States", "region": "New York", "formatted": "Malta New York NY 12020 United States", "primary": true, "postalCode": "NY 12020", "type": "work"}], "relations": [{"type": "manager", "value": "Darren.Thomas@globalfoundries.com"}], "emails": [{"type": "custom", "primary": true, "address": "anthony.smith@globalfoundries.com"}], "name": {"fullName": "Anthony Smith", "givenName": "Anthony", "familyName": "Smith"}}, {"organizations": [{"name": "AM Technical Solutions", "title": "Contractor", "customType": "work", "primary": true, "location": "J10397", "department": "SS TOOL INSTALL"}], "primaryEmail": "austin.holmes@globalfoundries.com", "addresses": [{"locality": "Malta", "country": "United States", "region": "New York", "formatted": "Malta New York NY 12020 United States", "primary": true, "postalCode": "NY 12020", "type": "work"}], "phones": [{"type": "work", "value": "61771"}, {"type": "home", "value": "+15183051771"}], "thumbnailPhotoUrl": "https://plus.google.com/_/focus/photos/public/AIbEiAIAAABECO656pbpnPiygQEiC3ZjYXJkX3Bob3RvKihlOGIyOTM0M2I1Y2RkYzdkNDJmZTk4MWNlMzUwY2ZlOGY3NzdhZDQ0MAFODhRww8bw8Pl-oj0slOES-9ev2Q", "relations": [{"type": "manager", "value": "Darren.Thomas@globalfoundries.com"}], "emails": [{"type": "custom", "primary": true, "address": "austin.holmes@globalfoundries.com"}], "name": {"fullName": "Austin Holmes", "givenName": "Austin", "familyName": "Holmes"}}, {"organizations": [{"name": "AM Technical Solutions", "title": "Contractor", "customType": "work", "primary": true, "location": "J10357", "department": "SS TOOL INSTALL"}], "primaryEmail": "benjamin.morgan@globalfoundries.com", "addresses": [{"locality": "Malta", "country": "United States", "region": "New York", "formatted": "Malta New York NY 12020 United States", "primary": true, "postalCode": "NY 12020", "type": "work"}], "phones": [{"type": "work", "value": "61955"}, {"type": "home", "value": "+15183051955"}], "relations": [{"type": "manager", "value": "Darren.Thomas@globalfoundries.com"}], "emails": [{"type": "custom", "primary": true, "address": "benjamin.morgan@globalfoundries.com"}], "name": {"fullName": "Benjamin Morgan", "givenName": "Benjamin", "familyName": "Morgan"}}, {"organizations": [{"department": "SS TOOL INSTALL", "customType": "work", "primary": true, "name": "AM Technical Solutions", "title": "Contractor"}], "primaryEmail": "benjamin.sacherich@globalfoundries.com", "addresses": [{"locality": "Malta", "country": "United States", "region": "New York", "formatted": "Malta New York NY 12020 United States", "primary": true, "postalCode": "NY 12020", "type": "work"}], "thumbnailPhotoUrl": "https://plus.google.com/_/focus/photos/public/AIbEiAIAAABECLLZ4Ybs7ob9oQEiC3ZjYXJkX3Bob3RvKig2NTgzYTJkYWQ0OGQzZjA2MzU4ZjBiMDA3Y2Q2MDYzYjMzODY0OTIzMAEuxRF39Bs46cuFBO6WyVcmoWIiMA", "relations": [{"type": "manager", "value": "Darren.Thomas@globalfoundries.com"}], "emails": [{"type": "custom", "primary": true, "address": "benjamin.sacherich@globalfoundries.com"}], "name": {"fullName": "Benjamin Sacherich", "givenName": "Benjamin", "familyName": "Sacherich"}}, {"organizations": [{"name": "AM Technical Solutions", "title": "Contractor", "customType": "work", "primary": true, "location": "J10379", "department": "SS TOOL INSTALL"}], "primaryEmail": "billy.booher@globalfoundries.com", "addresses": [{"locality": "Malta", "country": "United States", "region": "New York", "formatted": "Bldg: Malta Malta New York NY 12020 United States", "primary": true, "streetAddress": "Bldg: Malta", "postalCode": "NY 12020", "type": "work"}], "phones": [{"type": "work", "value": "61178"}, {"type": "home", "value": "+15183051778"}], "thumbnailPhotoUrl": "https://plus.google.com/_/focus/photos/private/AIbEiAIAAABDCNHHhLSa_Nq8AyILdmNhcmRfcGhvdG8qKDUxODZiYzhkOTI5NjA4NjA2MTM2YzlmMzE2YTA5MTcyOTljZjRhNDgwARr_ZIVTRx7uTuIaawtYe2ABzLL7", "relations": [{"type": "manager", "value": "Darren.Thomas@globalfoundries.com"}], "emails": [{"type": "custom", "primary": true, "address": "billy.booher@globalfoundries.com"}], "name": {"fullName": "Billy Booher", "givenName": "Billy", "familyName": "Booher"}}, {"organizations": [{"department": "SS TOOL INSTALL", "customType": "work", "primary": true, "name": "AM Technical Solutions", "title": "Contractor"}], "primaryEmail": "blaise.aldana@globalfoundries.com", "addresses": [{"locality": "Malta", "country": "United States", "region": "New York", "formatted": "Malta New York NY 12020 United States", "primary": true, "postalCode": "NY 12020", "type": "work"}], "relations": [{"type": "manager", "value": "Darren.Thomas@globalfoundries.com"}], "emails": [{"type": "custom", "primary": true, "address": "blaise.aldana@globalfoundries.com"}], "name": {"fullName": "Blaise Aldana", "givenName": "Blaise", "familyName": "Aldana"}}, {"organizations": [{"name": "AM Technical Solutions", "title": "Contractor", "customType": "work", "primary": true, "location": "J10401", "department": "SS TOOL INSTALL"}], "primaryEmail": "brian.gailfus@globalfoundries.com", "addresses": [{"locality": "Malta", "country": "United States", "region": "New York", "formatted": "Malta New York NY 12020 United States", "primary": true, "postalCode": "NY 12020", "type": "work"}], "phones": [{"type": "work", "value": "65576"}, {"type": "home", "value": "+15183055576"}], "thumbnailPhotoUrl": "https://plus.google.com/_/focus/photos/public/AIbEiAIAAABECLzz6N_iz7Gd5AEiC3ZjYXJkX3Bob3RvKig0MGM2ODY1YTI1ZjgxY2M2ZjRiYWM3OGY4NzJmOTUyZjZlMTM1ZDg4MAG1nmoNqp5dTCendTT3TOnq1Dk8ww", "relations": [{"type": "manager", "value": "Darren.Thomas@globalfoundries.com"}], "emails": [{"type": "custom", "primary": true, "address": "brian.gailfus@globalfoundries.com"}], "name": {"fullName": "Brian Gailfus", "givenName": "Brian", "familyName": "Gailfus"}}, {"organizations": [{"name": "AM Technical Solutions", "title": "Contractor", "customType": "work", "primary": true, "location": "M004", "department": "SS TOOL INSTALL"}], "primaryEmail": "brian.provencher@globalfoundries.com", "addresses": [{"locality": "Malta", "country": "United States", "region": "New York", "formatted": "Malta New York NY 12020 United States", "primary": true, "postalCode": "NY 12020", "type": "work"}], "phones": [{"type": "work", "value": "61751"}, {"type": "home", "value": "+15183051751"}], "relations": [{"type": "manager", "value": "Darren.Thomas@globalfoundries.com"}], "emails": [{"type": "custom", "primary": true, "address": "brian.provencher@globalfoundries.com"}], "name": {"fullName": "Brian Provencher", "givenName": "Brian", "familyName": "Provencher"}}, {"organizations": [{"name": "AM Technical Solutions", "title": "Contractor", "customType": "work", "primary": true, "location": "J10703", "department": "SS TOOL INSTALL"}], "primaryEmail": "brian.russell@globalfoundries.com", "addresses": [{"locality": "Malta", "country": "United States", "region": "New York", "formatted": "Malta New York NY 12020 United States", "primary": true, "postalCode": "NY 12020", "type": "work"}], "phones": [{"type": "work", "value": "61530"}, {"type": "home", "value": "+15183051530"}], "thumbnailPhotoUrl": "https://plus.google.com/_/focus/photos/private/AIbEiAIAAABDCMumr_XTtfGtGSILdmNhcmRfcGhvdG8qKDM4MmRjZmFlNjExODg1Y2ZiZTYwNDc3ZDUyODdkNjJhMWQ0MTNiNWUwAZwnCMNHTKiAL0R1EDLo3MyFTKug", "relations": [{"type": "manager", "value": "Darren.Thomas@globalfoundries.com"}], "emails": [{"type": "custom", "primary": true, "address": "brian.russell@globalfoundries.com"}], "name": {"fullName": "Brian Russell", "givenName": "Brian", "familyName": "Russell"}}, {"organizations": [{"name": "AM Technical Solutions", "title": "Contractor", "customType": "work", "primary": true, "location": "J10481T", "department": "SS TOOL INSTALL"}], "primaryEmail": "brian.siciliano@globalfoundries.com", "addresses": [{"locality": "Malta", "country": "United States", "region": "New York", "formatted": "Bldg: Malta Malta New York NY 12020 United States", "primary": true, "streetAddress": "Bldg: Malta", "postalCode": "NY 12020", "type": "work"}], "phones": [{"type": "work", "value": "66265"}, {"type": "home", "value": "+15183056265"}], "relations": [{"type": "manager", "value": "Darren.Thomas@globalfoundries.com"}], "emails": [{"type": "custom", "primary": true, "address": "brian.siciliano@globalfoundries.com"}], "name": {"fullName": "Brian Siciliano", "givenName": "Brian", "familyName": "Siciliano"}}, {"organizations": [{"department": "SS TOOL INSTALL", "customType": "work", "primary": true, "name": "AM Technical Solutions", "title": "Contractor"}], "primaryEmail": "brian.twilley@globalfoundries.com", "addresses": [{"locality": "Malta", "country": "United States", "region": "New York", "formatted": "Malta New York NY 12020 United States", "primary": true, "postalCode": "NY 12020", "type": "work"}], "thumbnailPhotoUrl": "https://plus.google.com/_/focus/photos/private/AIbEiAIAAABECIOM1Zyqi8bfggEiC3ZjYXJkX3Bob3RvKihiNWI1OGNmYzYwYTMwMWEwZjZkMmI1NjNlOThlNjVkNTA3ODU5ZmNlMAHWvq5A8IJt6ePvJqcBWZyjZeS_8A", "relations": [{"type": "manager", "value": "Darren.Thomas@globalfoundries.com"}], "emails": [{"type": "custom", "primary": true, "address": "brian.twilley@globalfoundries.com"}], "name": {"fullName": "Brian Twilley", "givenName": "Brian", "familyName": "Twilley"}}, {"organizations": [{"name": "AM Technical Solutions", "title": "Contractor", "customType": "work", "primary": true, "location": "J10364", "department": "SS TOOL INSTALL"}], "primaryEmail": "bryan.feerer@globalfoundries.com", "addresses": [{"locality": "Malta", "country": "United States", "region": "New York", "formatted": "Malta New York NY 12020 United States", "primary": true, "postalCode": "NY 12020", "type": "work"}], "phones": [{"type": "work", "value": "61417"}, {"type": "home", "value": "+15183051417"}], "relations": [{"type": "manager", "value": "Darren.Thomas@globalfoundries.com"}], "emails": [{"type": "custom", "primary": true, "address": "bryan.feerer@globalfoundries.com"}], "name": {"fullName": "Bryan Feerer", "givenName": "Bryan", "familyName": "Feerer"}}, {"organizations": [{"department": "SS TOOL INSTALL", "customType": "work", "primary": true, "name": "AM Technical Solutions", "title": "Contractor"}], "primaryEmail": "carl.kleiber@globalfoundries.com", "addresses": [{"locality": "Malta", "country": "United States", "region": "New York", "formatted": "Malta New York NY 12020 United States", "primary": true, "postalCode": "NY 12020", "type": "work"}], "relations": [{"type": "manager", "value": "Darren.Thomas@globalfoundries.com"}], "emails": [{"type": "custom", "primary": true, "address": "carl.kleiber@globalfoundries.com"}], "name": {"fullName": "Carl Kleiber", "givenName": "Carl", "familyName": "Kleiber"}}, {"organizations": [{"name": "FST Technical Services", "title": "Contractor", "customType": "work", "primary": true, "location": "J10440", "department": "SS TOOL INSTALL"}], "primaryEmail": "carlos.orange@globalfoundries.com", "addresses": [{"locality": "Malta", "country": "United States", "region": "New York", "formatted": "Malta New York NY 12020 United States", "primary": true, "postalCode": "NY 12020", "type": "work"}], "phones": [{"type": "work", "value": "66542"}, {"type": "home", "value": "+15183056542"}], "thumbnailPhotoUrl": "https://plus.google.com/_/focus/photos/public/AIbEiAIAAABDCI6fqpP0uay4HiILdmNhcmRfcGhvdG8qKDA2ZDEyNmU4MGQwODc2NDUyODdiZDdhYWQwODIzZjVhZmNjYjhhZGYwAd0wEQicexbaAxtsDPHTrCgy4DaI", "relations": [{"type": "manager", "value": "Darren.Thomas@globalfoundries.com"}], "emails": [{"type": "custom", "primary": true, "address": "carlos.orange@globalfoundries.com"}], "name": {"fullName": "Carlos Orange", "givenName": "Carlos", "familyName": "Orange"}}, {"organizations": [{"name": "AM Technical Solutions", "title": "Contractor", "customType": "work", "primary": true, "location": "J10361", "department": "SS TOOL INSTALL"}], "primaryEmail": "chadd.portwine@globalfoundries.com", "addresses": [{"locality": "Malta", "country": "United States", "region": "New York", "formatted": "Malta New York NY 12020 United States", "primary": true, "postalCode": "NY 12020", "type": "work"}], "phones": [{"type": "work", "value": "66185"}, {"type": "home", "value": "+15183056185"}], "thumbnailPhotoUrl": "https://plus.google.com/_/focus/photos/public/AIbEiAIAAABDCPbH7MauoJridSILdmNhcmRfcGhvdG8qKDU3YjQ3MDkzMzNiZTc3OTNkNDEwOTUxMTNkOTRkNmVjZWYxY2QwOTMwAV9Ze9G3x12GCK6as7Oh3yyOo3XQ", "relations": [{"type": "manager", "value": "Darren.Thomas@globalfoundries.com"}], "emails": [{"type": "custom", "primary": true, "address": "chadd.portwine@globalfoundries.com"}], "name": {"fullName": "Chadd Portwine", "givenName": "Chadd", "familyName": "Portwine"}}, {"organizations": [{"department": "SS TOOL INSTALL", "customType": "work", "primary": true, "name": "AM Technical Solutions", "title": "Contractor"}], "primaryEmail": "charles.mcnally@globalfoundries.com", "addresses": [{"locality": "Malta", "country": "United States", "region": "New York", "formatted": "Malta New York NY 12020 United States", "primary": true, "postalCode": "NY 12020", "type": "work"}], "relations": [{"type": "manager", "value": "Darren.Thomas@globalfoundries.com"}], "emails": [{"type": "custom", "primary": true, "address": "charles.mcnally@globalfoundries.com"}], "name": {"fullName": "Charles McNally", "givenName": "Charles", "familyName": "McNally"}}, {"organizations": [{"name": "AM Technical Solutions", "title": "Contractor", "customType": "work", "primary": true, "location": "M114", "department": "SS TOOL INSTALL"}], "primaryEmail": "charles.mirella@globalfoundries.com", "addresses": [{"locality": "Malta", "country": "United States", "region": "New York", "formatted": "Malta New York NY 12020 United States", "primary": true, "postalCode": "NY 12020", "type": "work"}], "phones": [{"type": "work", "value": "61410"}, {"type": "home", "value": "+15183051410"}], "relations": [{"type": "manager", "value": "Darren.Thomas@globalfoundries.com"}], "emails": [{"type": "custom", "primary": true, "address": "charles.mirella@globalfoundries.com"}], "name": {"fullName": "Charles Mirella", "givenName": "Charles", "familyName": "Mirella"}}, {"organizations": [{"name": "AM Technical Solutions", "title": "Contractor", "customType": "work", "primary": true, "location": "J10372", "department": "SS TOOL INSTALL"}], "primaryEmail": "charles.romero@globalfoundries.com", "addresses": [{"locality": "Malta", "country": "United States", "region": "New York", "formatted": "Malta New York NY 12020 United States", "primary": true, "postalCode": "NY 12020", "type": "work"}], "phones": [{"type": "work", "value": "66196"}, {"type": "home", "value": "+15183056196"}], "relations": [{"type": "manager", "value": "Darren.Thomas@globalfoundries.com"}], "emails": [{"type": "custom", "primary": true, "address": "charles.romero@globalfoundries.com"}], "name": {"fullName": "Charles Romero", "givenName": "Charles", "familyName": "Romero"}}, {"organizations": [{"name": "Ewell Finley", "title": "Contractor", "customType": "work", "primary": true, "location": "M006", "department": "SS TOOL INSTALL"}], "primaryEmail": "christina.englert@globalfoundries.com", "addresses": [{"locality": "Malta", "country": "United States", "region": "New York", "formatted": "Bldg: Malta Malta New York NY 12020 United States", "primary": true, "streetAddress": "Bldg: Malta", "postalCode": "NY 12020", "type": "work"}], "phones": [{"type": "work", "value": "69778"}, {"type": "home", "value": "+15183059778"}], "relations": [{"type": "manager", "value": "Darren.Thomas@globalfoundries.com"}], "emails": [{"type": "custom", "primary": true, "address": "christina.englert@globalfoundries.com"}], "name": {"fullName": "Christina Englert", "givenName": "Christina", "familyName": "Englert"}}, {"organizations": [{"name": "AM Technical Solutions", "title": "Contractor", "customType": "work", "primary": true, "location": "J10400", "department": "SS TOOL INSTALL"}], "primaryEmail": "christopher.copper@globalfoundries.com", "addresses": [{"locality": "Malta", "country": "United States", "region": "New York", "formatted": "Bldg: Malta Malta New York NY 12020 United States", "primary": true, "streetAddress": "Bldg: Malta", "postalCode": "NY 12020", "type": "work"}], "phones": [{"type": "work", "value": "69765"}, {"type": "home", "value": "+15183059765"}], "relations": [{"type": "manager", "value": "Darren.Thomas@globalfoundries.com"}], "emails": [{"type": "custom", "primary": true, "address": "christopher.copper@globalfoundries.com"}], "name": {"fullName": "Christopher Copper", "givenName": "Christopher", "familyName": "Copper"}}, {"organizations": [{"name": "AM Technical Solutions", "title": "Contractor", "customType": "work", "primary": true, "location": "J10358", "department": "SS TOOL INSTALL"}], "primaryEmail": "christopher.heyer@globalfoundries.com", "addresses": [{"locality": "Malta", "country": "United States", "region": "New York", "formatted": "Malta New York NY 12020 United States", "primary": true, "postalCode": "NY 12020", "type": "work"}], "phones": [{"type": "work", "value": "67596"}, {"type": "home", "value": "+15183057596"}], "thumbnailPhotoUrl": "https://plus.google.com/_/focus/photos/private/AIbEiAIAAABECOHL-fHu2fuh1gEiC3ZjYXJkX3Bob3RvKig0MzQxMjg3NjVjZjFmMTQ3NGI1MGUzODBmMGUxNmIzMzdhMjFkNzdmMAHhzZNgBWToamOH5_9_AX7Eo95hzg", "relations": [{"type": "manager", "value": "Darren.Thomas@globalfoundries.com"}], "emails": [{"type": "custom", "primary": true, "address": "christopher.heyer@globalfoundries.com"}], "name": {"fullName": "Christopher Heyer", "givenName": "Christopher", "familyName": "Heyer"}}, {"organizations": [{"name": "AM Technical Solutions", "title": "Contractor", "customType": "work", "primary": true, "location": "J10416", "department": "SS TOOL INSTALL"}], "primaryEmail": "christopher.june@globalfoundries.com", "addresses": [{"locality": "Malta", "country": "United States", "region": "New York", "formatted": "Malta New York NY 12020 United States", "primary": true, "postalCode": "NY 12020", "type": "work"}], "phones": [{"type": "work", "value": "61757"}, {"type": "home", "value": "+15183051757"}], "relations": [{"type": "manager", "value": "Darren.Thomas@globalfoundries.com"}], "emails": [{"type": "custom", "primary": true, "address": "christopher.june@globalfoundries.com"}], "name": {"fullName": "Christopher June", "givenName": "Christopher", "familyName": "June"}}, {"organizations": [{"name": "AM Technical Solutions", "title": "Contractor", "customType": "work", "primary": true, "location": "J10367", "department": "SS TOOL INSTALL"}], "primaryEmail": "christopher.nilon@globalfoundries.com", "addresses": [{"locality": "Malta", "country": "United States", "region": "New York", "formatted": "Malta New York NY 12020 United States", "primary": true, "postalCode": "NY 12020", "type": "work"}], "phones": [{"type": "work", "value": "61218"}, {"type": "home", "value": "+15183051218"}], "thumbnailPhotoUrl": "https://plus.google.com/_/focus/photos/private/AIbEiAIAAABDCJrS39_65_jpJCILdmNhcmRfcGhvdG8qKDY5NzdmYjFiMDIzOTU0MmRlNDY5NTY4NDZhNmVlM2QwNzhiZTRjNWUwAYGC7FGkYH8uQ804bdHCCXLsTiMN", "relations": [{"type": "manager", "value": "Darren.Thomas@globalfoundries.com"}], "emails": [{"type": "custom", "primary": true, "address": "christopher.nilon@globalfoundries.com"}], "name": {"fullName": "Christopher Nilon", "givenName": "Christopher", "familyName": "Nilon"}}, {"organizations": [{"name": "AM Technical Solutions", "title": "Contractor", "customType": "work", "primary": true, "location": "J10419", "department": "SS TOOL INSTALL"}], "primaryEmail": "christopher.schulz@globalfoundries.com", "addresses": [{"locality": "Malta", "country": "United States", "region": "New York", "formatted": "Malta New York NY 12020 United States", "primary": true, "postalCode": "NY 12020", "type": "work"}], "phones": [{"type": "work", "value": "69772"}, {"type": "home", "value": "+15183059722"}], "relations": [{"type": "manager", "value": "Darren.Thomas@globalfoundries.com"}], "emails": [{"type": "custom", "primary": true, "address": "christopher.schulz@globalfoundries.com"}], "name": {"fullName": "Christopher Schulz", "givenName": "Christopher", "familyName": "Schulz"}}, {"organizations": [{"department": "SS TOOL INSTALL", "customType": "work", "primary": true, "name": "FST Technical Service", "title": "Contractor"}], "primaryEmail": "craig.jacobi@globalfoundries.com", "addresses": [{"locality": "Malta", "country": "United States", "region": "New York", "formatted": "Malta New York NY 12020 United States", "primary": true, "postalCode": "NY 12020", "type": "work"}], "relations": [{"type": "manager", "value": "Darren.Thomas@globalfoundries.com"}], "emails": [{"type": "custom", "primary": true, "address": "craig.jacobi@globalfoundries.com"}], "name": {"fullName": "Craig Jacobi", "givenName": "Craig", "familyName": "Jacobi"}}, {"organizations": [{"name": "FST Technical Service", "title": "Contractor", "customType": "work", "primary": true, "location": "J10433", "department": "SS TOOL INSTALL"}], "primaryEmail": "curtis.cousino@globalfoundries.com", "addresses": [{"locality": "Malta", "country": "United States", "region": "New York", "formatted": "Malta New York NY 12020 United States", "primary": true, "postalCode": "NY 12020", "type": "work"}], "phones": [{"type": "work", "value": "66321"}, {"type": "home", "value": "+15183056321"}], "relations": [{"type": "manager", "value": "Darren.Thomas@globalfoundries.com"}], "emails": [{"type": "custom", "primary": true, "address": "curtis.cousino@globalfoundries.com"}], "name": {"fullName": "Curtis Cousino", "givenName": "Curtis", "familyName": "Cousino"}}, {"organizations": [{"name": "FST Technical Services", "title": "Contractor", "customType": "work", "primary": true, "location": "J10118", "department": "SS TOOL INSTALL"}], "primaryEmail": "dan.valls@globalfoundries.com", "addresses": [{"locality": "Malta", "country": "United States", "region": "New York", "formatted": "Bldg: Malta Malta New York NY 12020 United States", "primary": true, "streetAddress": "Bldg: Malta", "postalCode": "NY 12020", "type": "work"}], "phones": [{"type": "work", "value": "69782"}, {"type": "home", "value": "+15183059782"}], "relations": [{"type": "manager", "value": "Darren.Thomas@globalfoundries.com"}], "emails": [{"type": "custom", "primary": true, "address": "dan.valls@globalfoundries.com"}], "name": {"fullName": "Dan Valls", "givenName": "Dan", "familyName": "Valls"}}, {"organizations": [{"name": "AM Technical Solutions", "title": "Contractor", "customType": "work", "primary": true, "location": "J10463T", "department": "SS TOOL INSTALL"}], "primaryEmail": "dane.copper@globalfoundries.com", "addresses": [{"locality": "Malta", "country": "United States", "region": "New York", "formatted": "Malta New York NY 12020 United States", "primary": true, "postalCode": "NY 12020", "type": "work"}], "phones": [{"type": "work", "value": "69003"}, {"type": "home", "value": "+15183059003"}], "relations": [{"type": "manager", "value": "Darren.Thomas@globalfoundries.com"}], "emails": [{"type": "custom", "primary": true, "address": "dane.copper@globalfoundries.com"}], "name": {"fullName": "Dane Copper", "givenName": "Dane", "familyName": "Copper"}}, {"organizations": [{"department": "SS TOOL INSTALL", "customType": "work", "primary": true, "name": "AM Technical Solutions", "title": "Contractor"}], "primaryEmail": "daniel.mcintire@globalfoundries.com", "addresses": [{"locality": "Malta", "country": "United States", "region": "New York", "formatted": "Malta New York NY 12020 United States", "primary": true, "postalCode": "NY 12020", "type": "work"}], "relations": [{"type": "manager", "value": "Darren.Thomas@globalfoundries.com"}], "emails": [{"type": "custom", "primary": true, "address": "daniel.mcintire@globalfoundries.com"}], "name": {"fullName": "Daniel McIntire", "givenName": "Daniel", "familyName": "McIntire"}}, {"organizations": [{"name": "AM Technical Solutions", "title": "Contractor", "customType": "work", "primary": true, "location": "M123", "department": "SS TOOL INSTALL"}], "primaryEmail": "daniel.murphy@globalfoundries.com", "addresses": [{"locality": "Malta", "country": "United States", "region": "New York", "formatted": "Malta New York NY 12020 United States", "primary": true, "postalCode": "NY 12020", "type": "work"}], "phones": [{"type": "work", "value": "61215"}, {"type": "home", "value": "+15183051215"}], "relations": [{"type": "manager", "value": "Darren.Thomas@globalfoundries.com"}], "emails": [{"type": "custom", "primary": true, "address": "daniel.murphy@globalfoundries.com"}], "name": {"fullName": "Daniel Murphy", "givenName": "Daniel", "familyName": "Murphy"}}, {"organizations": [{"name": "AM Technical Solutions", "title": "Contractor", "customType": "work", "primary": true, "location": "J10468T", "department": "SS TOOL INSTALL"}], "primaryEmail": "daniel.willson@globalfoundries.com", "addresses": [{"locality": "Malta", "country": "United States", "region": "New York", "formatted": "Malta New York NY 12020 United States", "primary": true, "postalCode": "NY 12020", "type": "work"}], "phones": [{"type": "work", "value": "66517"}, {"type": "home", "value": "+15183056517"}], "relations": [{"type": "manager", "value": "Darren.Thomas@globalfoundries.com"}], "emails": [{"type": "custom", "primary": true, "address": "daniel.willson@globalfoundries.com"}], "name": {"fullName": "Daniel Willson", "givenName": "Daniel", "familyName": "Willson"}}, {"organizations": [{"department": "SS TOOL INSTALL", "customType": "work", "primary": true, "name": "AM Technical Solutions", "title": "Contractor"}], "primaryEmail": "danny.butcher@globalfoundries.com", "addresses": [{"locality": "Malta", "country": "United States", "region": "New York", "formatted": "Malta New York NY 12020 United States", "primary": true, "postalCode": "NY 12020", "type": "work"}], "thumbnailPhotoUrl": "https://plus.google.com/_/focus/photos/private/AIbEiAIAAABDCPvY18aZmrefAyILdmNhcmRfcGhvdG8qKGRhYzMxNWI4MjM0N2NmODhhYTNkNGQzZmY1YWY2Y2YxMDBkY2EzYWQwASlcHkNrTUnICR3cfC96mYpy7VAO", "relations": [{"type": "manager", "value": "Darren.Thomas@globalfoundries.com"}], "emails": [{"type": "custom", "primary": true, "address": "danny.butcher@globalfoundries.com"}], "name": {"fullName": "Danny Butcher", "givenName": "Danny", "familyName": "Butcher"}}, {"organizations": [{"department": "SS TOOL INSTALL", "customType": "work", "primary": true, "name": "AM Technical Solutions", "title": "Contractor"}], "primaryEmail": "darrell.lindley@globalfoundries.com", "addresses": [{"locality": "Malta", "country": "United States", "region": "New York", "formatted": "Malta New York NY 12020 United States", "primary": true, "postalCode": "NY 12020", "type": "work"}], "relations": [{"type": "manager", "value": "Darren.Thomas@globalfoundries.com"}], "emails": [{"type": "custom", "primary": true, "address": "darrell.lindley@globalfoundries.com"}], "name": {"fullName": "Darrell Lindley", "givenName": "Darrell", "familyName": "Lindley"}}, {"organizations": [{"department": "SS TOOL INSTALL", "customType": "work", "primary": true, "name": "AM Technical Solutions", "title": "Contractor"}], "primaryEmail": "david.dickison@globalfoundries.com", "addresses": [{"locality": "Malta", "country": "United States", "region": "New York", "formatted": "Malta New York NY 12020 United States", "primary": true, "postalCode": "NY 12020", "type": "work"}], "thumbnailPhotoUrl": "https://plus.google.com/_/focus/photos/private/AIbEiAIAAABECMm97PGri7OKvgEiC3ZjYXJkX3Bob3RvKihlZmFjYTFjYzVjNzAwYzFmNzlkZWI5MzAwODNjODljZTc5NTQ2M2Q1MAHAdOmUU7ECWP81B31eOgTiWBbwnw", "relations": [{"type": "manager", "value": "Darren.Thomas@globalfoundries.com"}], "emails": [{"type": "custom", "primary": true, "address": "david.dickison@globalfoundries.com"}], "name": {"fullName": "David Dickison", "givenName": "David", "familyName": "Dickison"}}, {"organizations": [{"name": "AM Technical Solutions", "title": "Contractor", "customType": "work", "primary": true, "location": "J10467T", "department": "SS TOOL INSTALL"}], "primaryEmail": "david.durall@globalfoundries.com", "addresses": [{"locality": "Malta", "country": "United States", "region": "New York", "formatted": "Malta New York NY 12020 United States", "primary": true, "postalCode": "NY 12020", "type": "work"}], "phones": [{"type": "work", "value": "61979"}, {"type": "home", "value": "+15183051979"}], "relations": [{"type": "manager", "value": "Darren.Thomas@globalfoundries.com"}], "emails": [{"type": "custom", "primary": true, "address": "david.durall@globalfoundries.com"}], "name": {"fullName": "David Durall III", "givenName": "David", "familyName": "Durall III"}}, {"organizations": [{"department": "SS TOOL INSTALL", "customType": "work", "primary": true, "name": "AM Technical Solutions", "title": "Contractor"}], "primaryEmail": "david.durkin@globalfoundries.com", "addresses": [{"locality": "Malta", "country": "United States", "region": "New York", "formatted": "Malta New York NY 12020 United States", "primary": true, "postalCode": "NY 12020", "type": "work"}], "relations": [{"type": "manager", "value": "Darren.Thomas@globalfoundries.com"}], "emails": [{"type": "custom", "primary": true, "address": "david.durkin@globalfoundries.com"}], "name": {"fullName": "David Durkin", "givenName": "David", "familyName": "Durkin"}}, {"organizations": [{"name": "AM Technical Solutions", "title": "Contractor", "customType": "work", "primary": true, "location": "J10389", "department": "SS TOOL INSTALL"}], "primaryEmail": "david.yu@globalfoundries.com", "addresses": [{"locality": "Malta", "country": "United States", "region": "New York", "formatted": "Malta New York NY 12020 United States", "primary": true, "postalCode": "NY 12020", "type": "work"}], "phones": [{"type": "work", "value": "69379"}, {"type": "home", "value": "+15183059379"}], "relations": [{"type": "manager", "value": "Darren.Thomas@globalfoundries.com"}], "emails": [{"type": "custom", "primary": true, "address": "david.yu@globalfoundries.com"}], "name": {"fullName": "David Yu", "givenName": "David", "familyName": "Yu"}}, {"organizations": [{"name": "AM Technical Solutions", "title": "Contractor", "customType": "work", "primary": true, "location": "M122", "department": "SS TOOL INSTALL"}], "primaryEmail": "dennis.holmes@globalfoundries.com", "addresses": [{"locality": "Malta", "country": "United States", "region": "New York", "formatted": "Malta New York NY 12020 United States", "primary": true, "postalCode": "NY 12020", "type": "work"}], "phones": [{"type": "work", "value": "69237"}, {"type": "home", "value": "+15183059237"}], "thumbnailPhotoUrl": "https://plus.google.com/_/focus/photos/public/AIbEiAIAAABDCJKfypGzhOHPHSILdmNhcmRfcGhvdG8qKGQyNDRmNzk2NDRmMDhmZmVhMTEzYzMxNTdkY2NlOTU1M2I0YWU2ODkwASWrRF_O7rr6VtohCx7t2hpnaagT", "relations": [{"type": "manager", "value": "Darren.Thomas@globalfoundries.com"}], "emails": [{"type": "custom", "primary": true, "address": "dennis.holmes@globalfoundries.com"}], "name": {"fullName": "Dennis Holmes", "givenName": "Dennis", "familyName": "Holmes"}}, {"organizations": [{"department": "SS TOOL INSTALL", "customType": "work", "primary": true, "name": "Dynamic Systems, Inc.", "title": "Contractor"}], "primaryEmail": "dennis.love@globalfoundries.com", "addresses": [{"locality": "Malta", "country": "United States", "region": "New York", "formatted": "Malta New York NY 12020 United States", "primary": true, "postalCode": "NY 12020", "type": "work"}], "relations": [{"type": "manager", "value": "Darren.Thomas@globalfoundries.com"}], "emails": [{"type": "custom", "primary": true, "address": "dennis.love@globalfoundries.com"}], "name": {"fullName": "Dennis Love", "givenName": "Dennis", "familyName": "Love"}}, {"organizations": [{"name": "AM Technical Solutions", "title": "Contractor", "customType": "work", "primary": true, "location": "J10418", "department": "SS TOOL INSTALL"}], "primaryEmail": "dennis.robbins@globalfoundries.com", "addresses": [{"locality": "Malta", "country": "United States", "region": "New York", "formatted": "Bldg: Malta Malta New York NY 12020 United States", "primary": true, "streetAddress": "Bldg: Malta", "postalCode": "NY 12020", "type": "work"}], "phones": [{"type": "work", "value": "69764"}, {"type": "home", "value": "+15183059764"}], "relations": [{"type": "manager", "value": "Darren.Thomas@globalfoundries.com"}], "emails": [{"primary": true, "address": "dennis.robbins@globalfoundries.com"}], "name": {"fullName": "Dennis Robbins", "givenName": "Dennis", "familyName": "Robbins"}}, {"organizations": [{"name": "AM Technical Solutions", "title": "Contractor", "customType": "work", "primary": true, "location": "J10431", "department": "SS TOOL INSTALL"}], "primaryEmail": "donald.henderson@globalfoundries.com", "addresses": [{"locality": "Malta", "country": "United States", "region": "New York", "formatted": "Malta New York NY 12020 United States", "primary": true, "postalCode": "NY 12020", "type": "work"}], "phones": [{"type": "work", "value": "67854"}, {"type": "home", "value": "+15183057854"}], "relations": [{"type": "manager", "value": "Darren.Thomas@globalfoundries.com"}], "emails": [{"type": "custom", "primary": true, "address": "donald.henderson@globalfoundries.com"}], "name": {"fullName": "Donald Henderson", "givenName": "Donald", "familyName": "Henderson"}}, {"organizations": [{"department": "SS TOOL INSTALL", "customType": "work", "primary": true, "name": "AM Technical Solutions", "title": "Contractor"}], "primaryEmail": "douglas.drake@globalfoundries.com", "addresses": [{"locality": "Malta", "country": "United States", "region": "New York", "formatted": "Malta New York NY 12020 United States", "primary": true, "postalCode": "NY 12020", "type": "work"}], "relations": [{"type": "manager", "value": "Darren.Thomas@globalfoundries.com"}], "emails": [{"type": "custom", "primary": true, "address": "douglas.drake@globalfoundries.com"}], "name": {"fullName": "Douglas Drake", "givenName": "Douglas", "familyName": "Drake"}}, {"organizations": [{"name": "AM Technical Solutions", "title": "Contractor", "customType": "work", "primary": true, "location": "M120", "department": "SS TOOL INSTALL"}], "primaryEmail": "edward.cehowski@globalfoundries.com", "addresses": [{"locality": "Malta", "country": "United States", "region": "New York", "formatted": "Malta New York NY 12020 United States", "primary": true, "postalCode": "NY 12020", "type": "work"}], "phones": [{"type": "work", "value": "69750"}, {"type": "home", "value": "+15183059750"}], "relations": [{"type": "manager", "value": "Darren.Thomas@globalfoundries.com"}], "emails": [{"type": "custom", "primary": true, "address": "edward.cehowski@globalfoundries.com"}], "name": {"fullName": "Edward Cehowski", "givenName": "Edward", "familyName": "Cehowski"}}, {"organizations": [{"name": "AM Technical Solutions", "title": "Contractor", "customType": "work", "primary": true, "location": "J10402", "department": "SS TOOL INSTALL"}], "primaryEmail": "edward.felix@globalfoundries.com", "addresses": [{"locality": "Malta", "country": "United States", "region": "New York", "formatted": "Malta New York NY 12020 United States", "primary": true, "postalCode": "NY 12020", "type": "work"}], "phones": [{"type": "work", "value": "69317"}, {"type": "home", "value": "+15183059317"}], "relations": [{"type": "manager", "value": "Darren.Thomas@globalfoundries.com"}], "emails": [{"primary": true, "address": "edward.felix@globalfoundries.com"}], "name": {"fullName": "Edward Felix", "givenName": "Edward", "familyName": "Felix"}}, {"organizations": [{"name": "AM Technical Solutions", "title": "Contractor", "customType": "work", "primary": true, "location": "J10387", "department": "SS TOOL INSTALL"}], "primaryEmail": "edward.raney@globalfoundries.com", "addresses": [{"locality": "Malta", "country": "United States", "region": "New York", "formatted": "Bldg: Malta Malta New York NY 12020 United States", "primary": true, "streetAddress": "Bldg: Malta", "postalCode": "NY 12020", "type": "work"}], "phones": [{"type": "work", "value": "67880"}, {"type": "home", "value": "+15183057880"}], "relations": [{"type": "manager", "value": "Darren.Thomas@globalfoundries.com"}], "emails": [{"type": "custom", "primary": true, "address": "edward.raney@globalfoundries.com"}], "name": {"fullName": "Edward Raney", "givenName": "Edward", "familyName": "Raney"}}, {"organizations": [{"name": "AM Technical Solutions", "title": "Contractor", "customType": "work", "primary": true, "location": "M106", "department": "SS TOOL INSTALL"}], "primaryEmail": "emmakate.small@globalfoundries.com", "addresses": [{"locality": "Malta", "country": "United States", "region": "New York", "formatted": "Bldg: Malta Malta New York NY 12020 United States", "primary": true, "streetAddress": "Bldg: Malta", "postalCode": "NY 12020", "type": "work"}], "phones": [{"type": "work", "value": "69080"}, {"type": "home", "value": "+15183059080"}], "thumbnailPhotoUrl": "https://plus.google.com/_/focus/photos/public/AIbEiAIAAABECJmKlNLByf3KwgEiC3ZjYXJkX3Bob3RvKigzMDUxN2Y4ZTMwODI1NzJlYTU5MDI5MWJmMmQyMjhhZTk4MThiMWQwMAGuk5_3lEATgMdhdfqIR0kYINgCHg", "relations": [{"type": "manager", "value": "Darren.Thomas@globalfoundries.com"}], "emails": [{"type": "custom", "primary": true, "address": "emmakate.small@globalfoundries.com"}], "name": {"fullName": "EmmaKate Small", "givenName": "EmmaKate", "familyName": "Small"}}, {"organizations": [{"name": "AM Technical Solutions", "title": "Contractor", "customType": "work", "primary": true, "location": "J10380", "department": "SS TOOL INSTALL"}], "primaryEmail": "enrique.perez@globalfoundries.com", "addresses": [{"locality": "Malta", "country": "United States", "region": "New York", "formatted": "Malta New York NY 12020 United States", "primary": true, "postalCode": "NY 12020", "type": "work"}], "phones": [{"type": "work", "value": "69761"}, {"type": "home", "value": "+15183059761"}], "thumbnailPhotoUrl": "https://plus.google.com/_/focus/photos/private/AIbEiAIAAABDCIqCxdH30M_OPiILdmNhcmRfcGhvdG8qKGJjYzE2ZjhmZTc1OTU2NDJjODkyZmZhYmNhMGMwZWZmMTIxMjA2MjkwATwNDehPnKxhGG71uyJW9eUWjf-6", "relations": [{"type": "manager", "value": "Darren.Thomas@globalfoundries.com"}], "emails": [{"type": "custom", "primary": true, "address": "enrique.perez@globalfoundries.com"}], "name": {"fullName": "Enrique Perez", "givenName": "Enrique", "familyName": "Perez"}}, {"organizations": [{"department": "SS TOOL INSTALL", "customType": "work", "primary": true, "name": "AM Technical Solutions", "title": "Contractor"}], "primaryEmail": "eric.geider@globalfoundries.com", "addresses": [{"locality": "Malta", "country": "United States", "region": "New York", "formatted": "Malta New York NY 12020 United States", "primary": true, "postalCode": "NY 12020", "type": "work"}], "relations": [{"type": "manager", "value": "Darren.Thomas@globalfoundries.com"}], "emails": [{"type": "custom", "primary": true, "address": "eric.geider@globalfoundries.com"}], "name": {"fullName": "Eric Geider", "givenName": "Eric", "familyName": "Geider"}}, {"organizations": [{"name": "AM Technical Solutions", "title": "Contractor", "customType": "work", "primary": true, "location": "J10469T", "department": "SS TOOL INSTALL"}], "primaryEmail": "eric.kinsley@globalfoundries.com", "addresses": [{"locality": "Malta", "country": "United States", "region": "New York", "formatted": "Malta New York NY 12020 United States", "primary": true, "postalCode": "NY 12020", "type": "work"}], "phones": [{"type": "work", "value": "61713"}, {"type": "home", "value": "+15183051713"}], "thumbnailPhotoUrl": "https://plus.google.com/_/focus/photos/public/AIbEiAIAAABECJKo6dPUvv6Z2wEiC3ZjYXJkX3Bob3RvKigyYjEyNjlmOGJiNGRjOGMwNDM3Mzg1ZjNiMTdmNjg1ODBhZTBlNjA5MAE2bwmM93984mzfA1Zn9PERTqa83g", "relations": [{"type": "manager", "value": "Darren.Thomas@globalfoundries.com"}], "emails": [{"type": "custom", "primary": true, "address": "eric.kinsley@globalfoundries.com"}], "name": {"fullName": "Eric Kinsley", "givenName": "Eric", "familyName": "Kinsley"}}, {"organizations": [{"department": "SS TOOL INSTALL", "customType": "work", "primary": true, "name": "AM Technical Solutions", "title": "Contractor"}], "primaryEmail": "erin.davis@globalfoundries.com", "addresses": [{"locality": "Malta", "country": "United States", "region": "New York", "formatted": "Malta New York NY 12020 United States", "primary": true, "postalCode": "NY 12020", "type": "work"}], "thumbnailPhotoUrl": "https://plus.google.com/_/focus/photos/private/AIbEiAIAAABECNDY-KfKofvulQEiC3ZjYXJkX3Bob3RvKihhODlhNGNjMjgyNDExNzliZmUyMGRkMzIzN2E3YmRhYzg2OGY2OWY0MAGJQsbWWh1Fjw8hXLvprcvcS5Qzow", "relations": [{"type": "manager", "value": "Darren.Thomas@globalfoundries.com"}], "emails": [{"type": "custom", "primary": true, "address": "erin.davis@globalfoundries.com"}], "name": {"fullName": "Erin Davis", "givenName": "Erin", "familyName": "Davis"}}, {"organizations": [{"name": "AM Technical Solutions", "title": "Contractor", "customType": "work", "primary": true, "location": "J10403", "department": "SS TOOL INSTALL"}], "primaryEmail": "frank.delgado@globalfoundries.com", "addresses": [{"locality": "Malta", "country": "United States", "region": "New York", "formatted": "Malta New York NY 12020 United States", "primary": true, "postalCode": "NY 12020", "type": "work"}], "phones": [{"type": "work", "value": "61869"}, {"type": "home", "value": "+15183051869"}], "thumbnailPhotoUrl": "https://plus.google.com/_/focus/photos/private/AIbEiAIAAABECIGNyfmGno7BgAEiC3ZjYXJkX3Bob3RvKigzYzEzMzc2N2RmN2NiZmZkNGJmZDIzZWY1ODRlNjlhYTE4NGMxOGMyMAH7l9-7uxmk2pawxoXjx-CAiG_OyA", "relations": [{"type": "manager", "value": "Darren.Thomas@globalfoundries.com"}], "emails": [{"type": "custom", "primary": true, "address": "frank.delgado@globalfoundries.com"}], "name": {"fullName": "Frank Delgado", "givenName": "Frank", "familyName": "Delgado"}}, {"organizations": [{"name": "AM Technical Solutions", "title": "Contractor", "customType": "work", "primary": true, "location": "J10427", "department": "SS TOOL INSTALL"}], "primaryEmail": "frank.studenroth@globalfoundries.com", "addresses": [{"locality": "Malta", "country": "United States", "region": "New York", "formatted": "Bldg: Malta Malta New York NY 12020 United States", "primary": true, "streetAddress": "Bldg: Malta", "postalCode": "NY 12020", "type": "work"}], "phones": [{"type": "work", "value": "69752"}, {"type": "home", "value": "+15183059752"}], "relations": [{"type": "manager", "value": "Darren.Thomas@globalfoundries.com"}], "emails": [{"type": "custom", "primary": true, "address": "frank.studenroth@globalfoundries.com"}], "name": {"fullName": "Frank Studenroth", "givenName": "Frank", "familyName": "Studenroth"}}, {"organizations": [{"department": "SS TOOL INSTALL", "customType": "work", "primary": true, "name": "AM Technical Solutions", "title": "Contractor"}], "primaryEmail": "gary.foley@globalfoundries.com", "addresses": [{"locality": "Malta", "country": "United States", "region": "New York", "formatted": "Malta New York NY 12020 United States", "primary": true, "postalCode": "NY 12020", "type": "work"}], "relations": [{"type": "manager", "value": "Darren.Thomas@globalfoundries.com"}], "emails": [{"type": "custom", "primary": true, "address": "gary.foley@globalfoundries.com"}], "name": {"fullName": "Gary Foley", "givenName": "Gary", "familyName": "Foley"}}, {"organizations": [{"department": "SS TOOL INSTALL", "customType": "work", "primary": true, "name": "FST Technical Service", "title": "Contractor"}], "primaryEmail": "gary.hill@globalfoundries.com", "addresses": [{"locality": "Malta", "country": "United States", "region": "New York", "formatted": "Malta New York NY 12020 United States", "primary": true, "postalCode": "NY 12020", "type": "work"}], "relations": [{"type": "manager", "value": "Darren.Thomas@globalfoundries.com"}], "emails": [{"type": "custom", "primary": true, "address": "gary.hill@globalfoundries.com"}], "name": {"fullName": "Gary Hill", "givenName": "Gary", "familyName": "Hill"}}, {"organizations": [{"name": "AM Technical Solutions", "title": "Contractor", "customType": "work", "primary": true, "location": "J10466T", "department": "SS TOOL INSTALL"}], "primaryEmail": "gilbert.sanchez@globalfoundries.com", "addresses": [{"locality": "Malta", "country": "United States", "region": "New York", "formatted": "Malta New York NY 12020 United States", "primary": true, "postalCode": "NY 12020", "type": "work"}], "phones": [{"type": "work", "value": "69770"}, {"type": "home", "value": "+15183059770"}], "relations": [{"type": "manager", "value": "Darren.Thomas@globalfoundries.com"}], "emails": [{"type": "custom", "primary": true, "address": "gilbert.sanchez@globalfoundries.com"}], "name": {"fullName": "Gilbert Sanchez", "givenName": "Gilbert", "familyName": "Sanchez"}}, {"organizations": [{"name": "AM Technical Solutions", "title": "Contractor", "customType": "work", "primary": true, "location": "M022", "department": "SS TOOL INSTALL"}], "primaryEmail": "gloria.tingler@globalfoundries.com", "addresses": [{"locality": "Malta", "country": "United States", "region": "New York", "formatted": "Malta New York NY 12020 United States", "primary": true, "postalCode": "NY 12020", "type": "work"}], "phones": [{"type": "work", "value": "67852"}, {"type": "home", "value": "+15183057852"}], "relations": [{"type": "manager", "value": "Darren.Thomas@globalfoundries.com"}], "emails": [{"type": "custom", "primary": true, "address": "gloria.tingler@globalfoundries.com"}], "name": {"fullName": "Gloria Tingler", "givenName": "Gloria", "familyName": "Tingler"}}, {"organizations": [{"department": "SS TOOL INSTALL", "customType": "work", "primary": true, "name": "AM Technical Solutions", "title": "Contractor"}], "primaryEmail": "graham.moreland@globalfoundries.com", "addresses": [{"locality": "Malta", "country": "United States", "region": "New York", "formatted": "Malta New York NY 12020 United States", "primary": true, "postalCode": "NY 12020", "type": "work"}], "relations": [{"type": "manager", "value": "Darren.Thomas@globalfoundries.com"}], "emails": [{"type": "custom", "primary": true, "address": "graham.moreland@globalfoundries.com"}], "name": {"fullName": "Graham Moreland", "givenName": "Graham", "familyName": "Moreland"}}, {"organizations": [{"department": "SS TOOL INSTALL", "customType": "work", "primary": true, "name": "AM Technical Solutions", "title": "Contractor"}], "primaryEmail": "haley.kamberalis@globalfoundries.com", "addresses": [{"locality": "Malta", "country": "United States", "region": "New York", "formatted": "Malta New York NY 12020 United States", "primary": true, "postalCode": "NY 12020", "type": "work"}], "thumbnailPhotoUrl": "https://plus.google.com/_/focus/photos/public/AIbEiAIAAABECJ7o1efKjqeNvQEiC3ZjYXJkX3Bob3RvKihhZTM0M2MwYTJkMTczMDQ4YWQ4MDM1Nzc4MjQyODAxNjZlNmM1MDEzMAGlYaVtnhV9JAxaeCeWUujRP2RjKw", "relations": [{"type": "manager", "value": "Darren.Thomas@globalfoundries.com"}], "emails": [{"type": "custom", "primary": true, "address": "haley.kamberalis@globalfoundries.com"}], "name": {"fullName": "Haley Kamberalis", "givenName": "Haley", "familyName": "Kamberalis"}}, {"organizations": [{"name": "AM Technical Solutions", "title": "Contractor", "customType": "work", "primary": true, "location": "J10471T", "department": "SS TOOL INSTALL"}], "primaryEmail": "hossein.shahrebani@globalfoundries.com", "addresses": [{"locality": "Malta", "country": "United States", "region": "New York", "formatted": "Malta New York NY 12020 United States", "primary": true, "postalCode": "NY 12020", "type": "work"}], "phones": [{"type": "work", "value": "61029"}, {"type": "home", "value": "+15183051029"}], "relations": [{"type": "manager", "value": "Darren.Thomas@globalfoundries.com"}], "emails": [{"type": "custom", "primary": true, "address": "hossein.shahrebani@globalfoundries.com"}], "name": {"fullName": "Hossein Shahrebani", "givenName": "Hossein", "familyName": "Shahrebani"}}, {"organizations": [{"name": "AM Technical Solutions", "title": "Contractor", "customType": "work", "primary": true, "location": "M108", "department": "SS TOOL INSTALL"}], "primaryEmail": "ingrid.vanzoest@globalfoundries.com", "addresses": [{"locality": "Malta", "country": "United States", "region": "New York", "formatted": "Malta New York NY 12020 United States", "primary": true, "postalCode": "NY 12020", "type": "work"}], "phones": [{"type": "work", "value": "61766"}, {"type": "home", "value": "+15183051766"}], "thumbnailPhotoUrl": "https://plus.google.com/_/focus/photos/private/AIbEiAIAAABDCM640bLA76yaXCILdmNhcmRfcGhvdG8qKDQ4NmEyYjg3NWVlMzkyOGI3N2RhZmY5MTY5YWRjYjBhMjdjZDY0MDQwAVTp0-B_FqUnZnHlWixdkUMrGJt-", "relations": [{"type": "manager", "value": "Darren.Thomas@globalfoundries.com"}], "emails": [{"type": "custom", "primary": true, "address": "ingrid.vanzoest@globalfoundries.com"}], "name": {"fullName": "Ingrid Van Zoest", "givenName": "Ingrid", "familyName": "Van Zoest"}}, {"organizations": [{"department": "SS TOOL INSTALL", "customType": "work", "primary": true, "name": "FST Technical Services", "title": "Contractor"}], "primaryEmail": "ion.sirbu@globalfoundries.com", "addresses": [{"locality": "Malta", "country": "United States", "region": "New York", "formatted": "Malta New York NY 12020 United States", "primary": true, "postalCode": "NY 12020", "type": "work"}], "relations": [{"type": "manager", "value": "Darren.Thomas@globalfoundries.com"}], "emails": [{"type": "custom", "primary": true, "address": "ion.sirbu@globalfoundries.com"}], "name": {"fullName": "Ion Sirbu", "givenName": "Ion", "familyName": "Sirbu"}}, {"organizations": [{"name": "AM Technical Solutions", "title": "Contractor", "customType": "work", "primary": true, "location": "M113", "department": "SS TOOL INSTALL"}], "primaryEmail": "jack.kirschenbaum@globalfoundries.com", "addresses": [{"locality": "Malta", "country": "United States", "region": "New York", "formatted": "Malta New York NY 12020 United States", "primary": true, "postalCode": "NY 12020", "type": "work"}], "phones": [{"type": "work", "value": "61439"}, {"type": "home", "value": "+15183051439"}], "thumbnailPhotoUrl": "https://plus.google.com/_/focus/photos/public/AIbEiAIAAABDCP_Et-XJ95eXUCILdmNhcmRfcGhvdG8qKGIxOTZiNGVmZmM5NTA3ODA0OTljZTY2OWMzMzhkODFmOWYzNWJiNmQwAQeCLPks7PgfxtrYtZMctiukq9Gn", "relations": [{"type": "manager", "value": "Darren.Thomas@globalfoundries.com"}], "emails": [{"type": "custom", "primary": true, "address": "jack.kirschenbaum@globalfoundries.com"}], "name": {"fullName": "Jack Kirschenbaum", "givenName": "Jack", "familyName": "Kirschenbaum"}}, {"organizations": [{"name": "AM Technical Solutions", "title": "Contractor", "customType": "work", "primary": true, "location": "J10354", "department": "SS TOOL INSTALL"}], "primaryEmail": "jacqueline.oseback@globalfoundries.com", "addresses": [{"locality": "Malta", "country": "United States", "region": "New York", "formatted": "Malta New York NY 12020 United States", "primary": true, "postalCode": "NY 12020", "type": "work"}], "phones": [{"type": "work", "value": "66095"}, {"type": "home", "value": "+15183056095"}], "thumbnailPhotoUrl": "https://plus.google.com/_/focus/photos/public/AIbEiAIAAABECOOHssbDuuXNoQEiC3ZjYXJkX3Bob3RvKig3N2NhYWUwYWFiZDk5ZGM5YzEwMWZjMDFmZjcyNDkxOGE2NjUzZTZmMAGDjz8x51qDYAqL2rT9qwcXjnnQ4w", "relations": [{"type": "manager", "value": "Darren.Thomas@globalfoundries.com"}], "emails": [{"type": "custom", "primary": true, "address": "jacqueline.oseback@globalfoundries.com"}], "name": {"fullName": "Jacqueline Oseback", "givenName": "Jacqueline", "familyName": "Oseback"}}, {"organizations": [{"name": "AM Technical Solutions", "title": "Contractor", "customType": "work", "primary": true, "location": "M126", "department": "SS TOOL INSTALL"}], "primaryEmail": "jamal-rami.stewart@globalfoundries.com", "addresses": [{"locality": "Malta", "country": "United States", "region": "New York", "formatted": "Malta New York NY 12020 United States", "primary": true, "postalCode": "NY 12020", "type": "work"}], "phones": [{"type": "work", "value": "61683"}, {"type": "home", "value": "+15183051683"}], "relations": [{"type": "manager", "value": "Darren.Thomas@globalfoundries.com"}], "emails": [{"type": "custom", "primary": true, "address": "jamal-rami.stewart@globalfoundries.com"}], "name": {"fullName": "Jamal-Rami Stewart", "givenName": "Jamal-Rami", "familyName": "Stewart"}}, {"organizations": [{"name": "AM Technical Solutions", "title": "Contractor", "customType": "work", "primary": true, "location": "J10366", "department": "SS TOOL INSTALL"}], "primaryEmail": "james.deimling@globalfoundries.com", "addresses": [{"locality": "Malta", "country": "United States", "region": "New York", "formatted": "Malta New York NY 12020 United States", "primary": true, "postalCode": "NY 12020", "type": "work"}], "phones": [{"type": "work", "value": "68515"}, {"type": "home", "value": "+15183058515"}], "relations": [{"type": "manager", "value": "Darren.Thomas@globalfoundries.com"}], "emails": [{"type": "custom", "primary": true, "address": "james.deimling@globalfoundries.com"}], "name": {"fullName": "James Deimling", "givenName": "James", "familyName": "Deimling"}}, {"organizations": [{"name": "AM Technical Solutions", "title": "Contractor", "customType": "work", "primary": true, "location": "J10365", "department": "SS TOOL INSTALL"}], "primaryEmail": "james.riddle@globalfoundries.com", "addresses": [{"locality": "Malta", "country": "United States", "region": "New York", "formatted": "Malta New York NY 12020 United States", "primary": true, "postalCode": "NY 12020", "type": "work"}], "phones": [{"type": "work", "value": "66170"}, {"type": "home", "value": "+15183056170"}], "relations": [{"type": "manager", "value": "Darren.Thomas@globalfoundries.com"}], "emails": [{"type": "custom", "primary": true, "address": "james.riddle@globalfoundries.com"}], "name": {"fullName": "James Riddle", "givenName": "James", "familyName": "Riddle"}}, {"organizations": [{"department": "SS TOOL INSTALL", "customType": "work", "primary": true, "name": "AM Technical Solutions", "title": "Contractor"}], "primaryEmail": "james.schear@globalfoundries.com", "addresses": [{"locality": "Malta", "country": "United States", "region": "New York", "formatted": "Malta New York NY 12020 United States", "primary": true, "postalCode": "NY 12020", "type": "work"}], "relations": [{"type": "manager", "value": "Darren.Thomas@globalfoundries.com"}], "emails": [{"type": "custom", "primary": true, "address": "james.schear@globalfoundries.com"}], "name": {"fullName": "James Schear", "givenName": "James", "familyName": "Schear"}}, {"organizations": [{"department": "SS TOOL INSTALL", "customType": "work", "primary": true, "name": "AM Technical Solutions", "title": "Contractor"}], "primaryEmail": "james.schwartzhoff@globalfoundries.com", "addresses": [{"locality": "Malta", "country": "United States", "region": "New York", "formatted": "Malta New York NY 12020 United States", "primary": true, "postalCode": "NY 12020", "type": "work"}], "relations": [{"type": "manager", "value": "Darren.Thomas@globalfoundries.com"}], "emails": [{"type": "custom", "primary": true, "address": "james.schwartzhoff@globalfoundries.com"}], "name": {"fullName": "James Schwartzhoff", "givenName": "James", "familyName": "Schwartzhoff"}}, {"organizations": [{"department": "SS TOOL INSTALL", "customType": "work", "primary": true, "name": "AM Technical Solutions", "title": "Contractor"}], "primaryEmail": "jameson.williams@globalfoundries.com", "addresses": [{"locality": "Malta", "country": "United States", "region": "New York", "formatted": "Bldg: Malta Malta New York NY 12020 United States", "primary": true, "streetAddress": "Bldg: Malta", "postalCode": "NY 12020", "type": "work"}], "thumbnailPhotoUrl": "https://plus.google.com/_/focus/photos/public/AIbEiAIAAABECID5542qsaGTjAEiC3ZjYXJkX3Bob3RvKigzNjQwYjQ5MDNjYThhYjc4MDIyOGZiMmJjZGQyZGEzZWVlM2ZmNjIzMAG1AeXnd63BAxa-UpvA4OYHXLcISQ", "relations": [{"type": "manager", "value": "Darren.Thomas@globalfoundries.com"}], "emails": [{"type": "custom", "primary": true, "address": "jameson.williams@globalfoundries.com"}], "name": {"fullName": "Jameson Williams", "givenName": "Jameson", "familyName": "Williams"}}, {"organizations": [{"name": "AM Technical Solutions", "title": "Contractor", "customType": "work", "primary": true, "location": "M018", "department": "SS TOOL INSTALL"}], "primaryEmail": "jared.earickson@globalfoundries.com", "addresses": [{"locality": "Malta", "country": "United States", "region": "New York", "formatted": "Malta New York NY 12020 United States", "primary": true, "postalCode": "NY 12020", "type": "work"}], "phones": [{"type": "work", "value": "61847"}, {"type": "home", "value": "+15183051847"}], "thumbnailPhotoUrl": "https://plus.google.com/_/focus/photos/public/AIbEiAIAAABECJ3VzvGJyoqNhwEiC3ZjYXJkX3Bob3RvKihhN2Y5YmYyMjBlNWNmNmI3OTJhMDFjM2QxYTE4YTMyNmViZGRkOTAwMAGHCUlwNBMEKtl9ONOTaKMlE-vTBA", "relations": [{"type": "manager", "value": "Darren.Thomas@globalfoundries.com"}], "emails": [{"type": "custom", "primary": true, "address": "jared.earickson@globalfoundries.com"}], "name": {"fullName": "Jared Earickson", "givenName": "Jared", "familyName": "Earickson"}}, {"organizations": [{"department": "SS TOOL INSTALL", "customType": "work", "primary": true, "name": "AM Technical Solutions", "title": "Contractor"}], "primaryEmail": "jason.garcia@globalfoundries.com", "addresses": [{"locality": "Malta", "country": "United States", "region": "New York", "formatted": "Malta New York NY 12020 United States", "primary": true, "postalCode": "NY 12020", "type": "work"}], "relations": [{"type": "manager", "value": "Darren.Thomas@globalfoundries.com"}], "emails": [{"type": "custom", "primary": true, "address": "jason.garcia@globalfoundries.com"}], "name": {"fullName": "Jason Garcia", "givenName": "Jason", "familyName": "Garcia"}}, {"organizations": [{"name": "AM Technical Solutions", "title": "Contractor", "customType": "work", "primary": true, "location": "M125", "department": "SS TOOL INSTALL"}], "primaryEmail": "jason.stanco@globalfoundries.com", "addresses": [{"locality": "Malta", "country": "United States", "region": "New York", "formatted": "Bldg: Malta Malta New York NY 12020 United States", "primary": true, "streetAddress": "Bldg: Malta", "postalCode": "NY 12020", "type": "work"}], "phones": [{"type": "work", "value": "61762"}, {"type": "home", "value": "+15183051762"}], "thumbnailPhotoUrl": "https://plus.google.com/_/focus/photos/private/AIbEiAIAAABDCMmukr3V2aWFRiILdmNhcmRfcGhvdG8qKDg4NTMwMTIzNWQzOGM3NzRjYmUzYzE2NWY1NTJmNzJkNmNkZmYzZWUwAWwOsZQnjRMsAgDKg17ikkyW2EwL", "relations": [{"type": "manager", "value": "Darren.Thomas@globalfoundries.com"}], "emails": [{"type": "custom", "primary": true, "address": "jason.stanco@globalfoundries.com"}], "name": {"fullName": "Jason Stanco", "givenName": "Jason", "familyName": "Stanco"}}, {"organizations": [{"department": "SS TOOL INSTALL", "customType": "work", "primary": true, "name": "AM Technical Solutions", "title": "Contractor"}], "primaryEmail": "javier.garcia@globalfoundries.com", "addresses": [{"locality": "Malta", "country": "United States", "region": "New York", "formatted": "Malta New York NY 12020 United States", "primary": true, "postalCode": "NY 12020", "type": "work"}], "thumbnailPhotoUrl": "https://plus.google.com/_/focus/photos/public/AIbEiAIAAABDCLrA2ZvN5_TmbiILdmNhcmRfcGhvdG8qKDRjYjlkZTk1ZjdiMWIwZWVmOWU0MTVmZmMyZDUwNTk2MGUxOTM1YzUwAUi-eXfYTi8in1ly2ncOci3g4iK0", "relations": [{"type": "manager", "value": "Darren.Thomas@globalfoundries.com"}], "emails": [{"type": "custom", "primary": true, "address": "javier.garcia@globalfoundries.com"}], "name": {"fullName": "Javier Garcia", "givenName": "Javier", "familyName": "Garcia"}}, {"organizations": [{"name": "AM Technical Solutions", "title": "Contractor", "customType": "work", "primary": true, "location": "J10388", "department": "SS TOOL INSTALL"}], "primaryEmail": "jeffrey.jarrells@globalfoundries.com", "addresses": [{"locality": "Malta", "country": "United States", "region": "New York", "formatted": "Malta New York NY 12020 United States", "primary": true, "postalCode": "NY 12020", "type": "work"}], "phones": [{"type": "work", "value": "67962"}, {"type": "home", "value": "+15183057962"}], "relations": [{"type": "manager", "value": "Darren.Thomas@globalfoundries.com"}], "emails": [{"type": "custom", "primary": true, "address": "jeffrey.jarrells@globalfoundries.com"}], "name": {"fullName": "Jeffrey Jarrells", "givenName": "Jeffrey", "familyName": "Jarrells"}}, {"organizations": [{"department": "SS TOOL INSTALL", "customType": "work", "primary": true, "name": "AM Technical Solutions", "title": "Contractor"}], "primaryEmail": "jeffrey.rogers@globalfoundries.com", "addresses": [{"locality": "Malta", "country": "United States", "region": "New York", "formatted": "Malta New York NY 12020 United States", "primary": true, "postalCode": "NY 12020", "type": "work"}], "relations": [{"type": "manager", "value": "Darren.Thomas@globalfoundries.com"}], "emails": [{"type": "custom", "primary": true, "address": "jeffrey.rogers@globalfoundries.com"}], "name": {"fullName": "Jeffrey Rogers", "givenName": "Jeffrey", "familyName": "Rogers"}}, {"organizations": [{"name": "AM Technical Solutions", "title": "Contractor", "customType": "work", "primary": true, "location": "M130", "department": "SS TOOL INSTALL"}], "primaryEmail": "jennifer.kokocki@globalfoundries.com", "addresses": [{"locality": "Malta", "country": "United States", "region": "New York", "formatted": "Malta New York NY 12020 United States", "primary": true, "postalCode": "NY 12020", "type": "work"}], "phones": [{"type": "work", "value": "61056"}, {"type": "home", "value": "+15183051056"}], "thumbnailPhotoUrl": "https://plus.google.com/_/focus/photos/private/AIbEiAIAAABECO7C4b7slu3NxwEiC3ZjYXJkX3Bob3RvKig2M2YyZjQzMzM5ZDM0ODhiYTAyNmRlNTc1ZGQ1NzdiOTc5MTE0ODZkMAHwZeXS1p136vbdWkrYF9kwXS-Gsw", "relations": [{"type": "manager", "value": "Darren.Thomas@globalfoundries.com"}], "emails": [{"type": "custom", "primary": true, "address": "jennifer.kokocki@globalfoundries.com"}], "name": {"fullName": "Jennifer Kokocki", "givenName": "Jennifer", "familyName": "Kokocki"}}, {"organizations": [{"department": "SS TOOL INSTALL", "customType": "work", "primary": true, "name": "AM Technical Solutions", "title": "Contractor"}], "primaryEmail": "jennifer.sammartano@globalfoundries.com", "addresses": [{"locality": "Malta", "country": "United States", "region": "New York", "formatted": "Malta New York NY 12020 United States", "primary": true, "postalCode": "NY 12020", "type": "work"}], "thumbnailPhotoUrl": "https://plus.google.com/_/focus/photos/private/AIbEiAIAAABDCLqAh9nrpvTjDyILdmNhcmRfcGhvdG8qKDZiZGZlNTJlZTQzNmY5ZGZkMmQ4MWY2YTI4YjJmMjMzNTliNTg4MGIwAXA6Pc9tNWoO9uYhoPD37aInkwDs", "relations": [{"type": "manager", "value": "Darren.Thomas@globalfoundries.com"}], "emails": [{"type": "custom", "primary": true, "address": "jennifer.sammartano@globalfoundries.com"}], "name": {"fullName": "Jennifer Sammartano", "givenName": "Jennifer", "familyName": "Sammartano"}}, {"organizations": [{"department": "SS TOOL INSTALL", "customType": "work", "primary": true, "name": "AM Technical Solutions", "title": "Contractor"}], "primaryEmail": "jeremy.rubbelke@globalfoundries.com", "addresses": [{"locality": "Malta", "country": "United States", "region": "New York", "formatted": "Malta New York NY 12020 United States", "primary": true, "postalCode": "NY 12020", "type": "work"}], "relations": [{"type": "manager", "value": "Darren.Thomas@globalfoundries.com"}], "emails": [{"type": "custom", "primary": true, "address": "jeremy.rubbelke@globalfoundries.com"}], "name": {"fullName": "Jeremy Rubbelke", "givenName": "Jeremy", "familyName": "Rubbelke"}}, {"organizations": [{"name": "AM Technical Solutions", "title": "Contractor", "customType": "work", "primary": true, "location": "J10382", "department": "SS TOOL INSTALL"}], "primaryEmail": "jimmy.hailey@globalfoundries.com", "addresses": [{"locality": "Malta", "country": "United States", "region": "New York", "formatted": "Malta New York NY 12020 United States", "primary": true, "postalCode": "NY 12020", "type": "work"}], "phones": [{"type": "work", "value": "61747"}, {"type": "home", "value": "+15183051747"}], "thumbnailPhotoUrl": "https://plus.google.com/_/focus/photos/private/AIbEiAIAAABDCLTfycrn7rjATyILdmNhcmRfcGhvdG8qKDNkZjA1NDIyOWM5Y2FmODU2MGQxYmM2NzNhNzEyMWQ4OTk5NTFkNmQwAVqK7purNkGR81-YNDzSS75-BHLU", "relations": [{"type": "manager", "value": "Darren.Thomas@globalfoundries.com"}], "emails": [{"type": "custom", "primary": true, "address": "jimmy.hailey@globalfoundries.com"}], "name": {"fullName": "Jimmy Hailey", "givenName": "Jimmy", "familyName": "Hailey"}}, {"organizations": [{"name": "AM Technical Solutions", "title": "Contractor", "customType": "work", "primary": true, "location": "M003", "department": "SS TOOL INSTALL"}], "primaryEmail": "joe.lovett@globalfoundries.com", "addresses": [{"locality": "Malta", "country": "United States", "region": "New York", "formatted": "Bldg: Malta Malta New York NY 12020 United States", "primary": true, "streetAddress": "Bldg: Malta", "postalCode": "NY 12020", "type": "work"}], "phones": [{"type": "work", "value": "69308"}, {"type": "home", "value": "+15183059308"}], "thumbnailPhotoUrl": "https://plus.google.com/_/focus/photos/public/AIbEiAIAAABDCPqyvr2tw9jVOiILdmNhcmRfcGhvdG8qKDY3OTU1ZmNjOGJlMGRiM2Y5YWQyMzEyNzYyZTJjMWQ3Njc3ZWVlMGQwAdN8RE9ZhGi58xPTNDXS-3KtXbqP", "relations": [{"type": "manager", "value": "Darren.Thomas@globalfoundries.com"}], "emails": [{"type": "custom", "primary": true, "address": "joe.lovett@globalfoundries.com"}], "name": {"fullName": "Joe Lovett", "givenName": "Joe", "familyName": "Lovett"}}, {"organizations": [{"department": "SS TOOL INSTALL", "customType": "work", "primary": true, "name": "AM Technical Solutions", "title": "Contractor"}], "primaryEmail": "john.drewery@globalfoundries.com", "addresses": [{"locality": "Malta", "country": "United States", "region": "New York", "formatted": "Malta New York NY 12020 United States", "primary": true, "postalCode": "NY 12020", "type": "work"}], "relations": [{"type": "manager", "value": "Darren.Thomas@globalfoundries.com"}], "emails": [{"type": "custom", "primary": true, "address": "john.drewery@globalfoundries.com"}], "name": {"fullName": "John Drewery", "givenName": "John", "familyName": "Drewery"}}, {"organizations": [{"name": "AM Technical Solutions", "title": "Contractor", "customType": "work", "primary": true, "location": "M116", "department": "SS TOOL INSTALL"}], "primaryEmail": "john.falcho@globalfoundries.com", "addresses": [{"locality": "Malta", "country": "United States", "region": "New York", "formatted": "Malta New York NY 12020 United States", "primary": true, "postalCode": "NY 12020", "type": "work"}], "phones": [{"type": "work", "value": "67361"}, {"type": "home", "value": "+15183057361"}], "relations": [{"type": "manager", "value": "Darren.Thomas@globalfoundries.com"}], "emails": [{"type": "custom", "primary": true, "address": "john.falcho@globalfoundries.com"}], "name": {"fullName": "John Falcho", "givenName": "John", "familyName": "Falcho"}}, {"organizations": [{"department": "SS TOOL INSTALL", "customType": "work", "primary": true, "name": "AM Technical Solutions", "title": "Contractor"}], "primaryEmail": "john.huebner2@globalfoundries.com", "addresses": [{"locality": "Malta", "country": "United States", "region": "New York", "formatted": "Malta New York NY 12020 United States", "primary": true, "postalCode": "NY 12020", "type": "work"}], "phones": [{"type": "work", "value": "61267"}, {"type": "home", "value": "+15183051267"}], "thumbnailPhotoUrl": "https://plus.google.com/_/focus/photos/private/AIbEiAIAAABDCKu2kJnJ1fTZTiILdmNhcmRfcGhvdG8qKDcyYTQ5YjVjM2YxNDkyNDYwNTEzYjhiN2ZmZjM5NWMyN2Y4ZmE3ZjcwAVHZTcROtM315HhiN0G1lL2BYhwk", "relations": [{"type": "manager", "value": "Darren.Thomas@globalfoundries.com"}], "emails": [{"type": "custom", "primary": true, "address": "john.huebner2@globalfoundries.com"}], "name": {"fullName": "John Huebner", "givenName": "John", "familyName": "Huebner"}}, {"organizations": [{"name": "AM Technical Solutions", "title": "Contractor", "customType": "work", "primary": true, "location": "M102", "department": "SS TOOL INSTALL"}], "primaryEmail": "john.huebner@globalfoundries.com", "addresses": [{"locality": "Malta", "country": "United States", "region": "New York", "formatted": "Malta New York NY 12020 United States", "primary": true, "postalCode": "NY 12020", "type": "work"}], "phones": [{"type": "work", "value": "61034"}, {"type": "home", "value": "+15183051034"}], "relations": [{"type": "manager", "value": "Darren.Thomas@globalfoundries.com"}], "emails": [{"type": "custom", "primary": true, "address": "john.huebner@globalfoundries.com"}], "name": {"fullName": "John Huebner", "givenName": "John", "familyName": "Huebner"}}, {"organizations": [{"name": "AM Technical Solutions", "title": "Contractor", "customType": "work", "primary": true, "location": "J10393", "department": "SS TOOL INSTALL"}], "primaryEmail": "john.ryan@globalfoundries.com", "addresses": [{"locality": "Malta", "country": "United States", "region": "New York", "formatted": "Malta New York NY 12020 United States", "primary": true, "postalCode": "NY 12020", "type": "work"}], "phones": [{"type": "work", "value": "69189"}, {"type": "home", "value": "+15183059189"}], "relations": [{"type": "manager", "value": "Darren.Thomas@globalfoundries.com"}], "emails": [{"primary": true, "address": "john.ryan@globalfoundries.com"}], "name": {"fullName": "John Ryan", "givenName": "John", "familyName": "Ryan"}}, {"organizations": [{"department": "SS TOOL INSTALL", "customType": "work", "primary": true, "name": "AM Technical Solutions", "title": "Contractor"}], "primaryEmail": "johnny.ruybal@globalfoundries.com", "addresses": [{"locality": "Malta", "country": "United States", "region": "New York", "formatted": "Malta New York NY 12020 United States", "primary": true, "postalCode": "NY 12020", "type": "work"}], "relations": [{"type": "manager", "value": "Darren.Thomas@globalfoundries.com"}], "emails": [{"type": "custom", "primary": true, "address": "johnny.ruybal@globalfoundries.com"}], "name": {"fullName": "Johnny Ruybal", "givenName": "Johnny", "familyName": "Ruybal"}}, {"organizations": [{"name": "AM Technical Solutions", "title": "Contractor", "customType": "work", "primary": true, "location": "J10386", "department": "SS TOOL INSTALL"}], "primaryEmail": "jonathan.feerer@globalfoundries.com", "addresses": [{"locality": "Malta", "country": "United States", "region": "New York", "formatted": "Malta New York NY 12020 United States", "primary": true, "postalCode": "NY 12020", "type": "work"}], "phones": [{"type": "work", "value": "69766"}, {"type": "home", "value": "+15183059766"}], "thumbnailPhotoUrl": "https://plus.google.com/_/focus/photos/private/AIbEiAIAAABDCOLmzeXDmcvddCILdmNhcmRfcGhvdG8qKGVkODdmZjVmZmY4YjhiNTVlZTAyZGZlNWY2NDZlYWY1MTQxZGYyNDUwAQQGzfTRMYOA987vgKn_yNXrB3JZ", "relations": [{"type": "manager", "value": "Darren.Thomas@globalfoundries.com"}], "emails": [{"type": "custom", "primary": true, "address": "jonathan.feerer@globalfoundries.com"}], "name": {"fullName": "Jonathan Feerer", "givenName": "Jonathan", "familyName": "Feerer"}}, {"organizations": [{"department": "SS TOOL INSTALL", "customType": "work", "primary": true, "name": "AM Technical Solutions", "title": "Contractor"}], "primaryEmail": "jonathan.sommerfeld@globalfoundries.com", "addresses": [{"locality": "Malta", "country": "United States", "region": "New York", "formatted": "Malta New York NY 12020 United States", "primary": true, "postalCode": "NY 12020", "type": "work"}], "relations": [{"type": "manager", "value": "Darren.Thomas@globalfoundries.com"}], "emails": [{"type": "custom", "primary": true, "address": "jonathan.sommerfeld@globalfoundries.com"}], "name": {"fullName": "Jonathan Sommerfeld", "givenName": "Jonathan", "familyName": "Sommerfeld"}}, {"organizations": [{"department": "SS TOOL INSTALL", "customType": "work", "primary": true, "name": "AM Technical Solutions", "title": "Contractor"}], "primaryEmail": "jorge.garmino@globalfoundries.com", "addresses": [{"locality": "Malta", "country": "United States", "region": "New York", "formatted": "Malta New York NY 12020 United States", "primary": true, "postalCode": "NY 12020", "type": "work"}], "relations": [{"type": "manager", "value": "Darren.Thomas@globalfoundries.com"}], "emails": [{"type": "custom", "primary": true, "address": "jorge.garmino@globalfoundries.com"}], "name": {"fullName": "Jorge Garmino", "givenName": "Jorge", "familyName": "Garmino"}}, {"organizations": [{"name": "FST Technical Services", "title": "Contractor", "customType": "work", "primary": true, "location": "J10447", "department": "SS TOOL INSTALL"}], "primaryEmail": "jose.reyesrobles@globalfoundries.com", "addresses": [{"locality": "Malta", "country": "United States", "region": "New York", "formatted": "Malta New York NY 12020 United States", "primary": true, "postalCode": "NY 12020", "type": "work"}], "phones": [{"type": "work", "value": "66554"}, {"type": "home", "value": "+15183056554"}], "relations": [{"type": "manager", "value": "Darren.Thomas@globalfoundries.com"}], "emails": [{"type": "custom", "primary": true, "address": "jose.reyesrobles@globalfoundries.com"}], "name": {"fullName": "Jose Reyes Robles", "givenName": "Jose", "familyName": "Reyes Robles"}}, {"organizations": [{"name": "AM Technical Solutions", "title": "Contractor", "customType": "work", "primary": true, "location": "M117", "department": "SS TOOL INSTALL"}], "primaryEmail": "josef.nagy@globalfoundries.com", "addresses": [{"locality": "Malta", "country": "United States", "region": "New York", "formatted": "Malta New York NY 12020 United States", "primary": true, "postalCode": "NY 12020", "type": "work"}], "phones": [{"type": "work", "value": "69749"}, {"type": "home", "value": "+15183059749"}], "relations": [{"type": "manager", "value": "Darren.Thomas@globalfoundries.com"}], "emails": [{"type": "custom", "primary": true, "address": "josef.nagy@globalfoundries.com"}], "name": {"fullName": "Josef Nagy", "givenName": "Josef", "familyName": "Nagy"}}, {"organizations": [{"department": "SS TOOL INSTALL", "customType": "work", "primary": true, "name": "AM Technical Solutions", "title": "Contractor"}], "primaryEmail": "joseph.barnets@globalfoundries.com", "addresses": [{"locality": "Malta", "country": "United States", "region": "New York", "formatted": "Bldg: Malta Malta New York NY 12020 United States", "primary": true, "streetAddress": "Bldg: Malta", "postalCode": "NY 12020", "type": "work"}], "relations": [{"type": "manager", "value": "Darren.Thomas@globalfoundries.com"}], "emails": [{"type": "custom", "primary": true, "address": "joseph.barnets@globalfoundries.com"}], "name": {"fullName": "Joseph Barnets", "givenName": "Joseph", "familyName": "Barnets"}}, {"organizations": [{"name": "AM Technical Solutions", "title": "Contractor", "customType": "work", "primary": true, "location": "J10392", "department": "SS TOOL INSTALL"}], "primaryEmail": "joseph.petralia@globalfoundries.com", "addresses": [{"locality": "Malta", "country": "United States", "region": "New York", "formatted": "Malta New York NY 12020 United States", "primary": true, "postalCode": "NY 12020", "type": "work"}], "phones": [{"type": "work", "value": "68562"}, {"type": "home", "value": "+15183058562"}], "relations": [{"type": "manager", "value": "Darren.Thomas@globalfoundries.com"}], "emails": [{"type": "custom", "primary": true, "address": "joseph.petralia@globalfoundries.com"}], "name": {"fullName": "Joseph Petralia", "givenName": "Joseph", "familyName": "Petralia"}}, {"organizations": [{"name": "AM Technical Solutions", "title": "Contractor", "customType": "work", "primary": true, "location": "J10483T", "department": "SS TOOL INSTALL"}], "primaryEmail": "joseph.riglioni@globalfoundries.com", "addresses": [{"locality": "Malta", "country": "United States", "region": "New York", "formatted": "Malta New York NY 12020 United States", "primary": true, "postalCode": "NY 12020", "type": "work"}], "phones": [{"type": "work", "value": "66175"}, {"type": "home", "value": "+15183056175"}], "relations": [{"type": "manager", "value": "Darren.Thomas@globalfoundries.com"}], "emails": [{"type": "custom", "primary": true, "address": "joseph.riglioni@globalfoundries.com"}], "name": {"fullName": "Joseph Riglioni", "givenName": "Joseph", "familyName": "Riglioni"}}, {"organizations": [{"name": "AM Technical Solutions", "title": "Contractor", "customType": "work", "primary": true, "location": "J10373", "department": "SS TOOL INSTALL"}], "primaryEmail": "joseph.smithjr@globalfoundries.com", "addresses": [{"locality": "Malta", "country": "United States", "region": "New York", "formatted": "Malta New York NY 12020 United States", "primary": true, "postalCode": "NY 12020", "type": "work"}], "phones": [{"type": "work", "value": "61414"}, {"type": "home", "value": "+15183051414"}], "relations": [{"type": "manager", "value": "Darren.Thomas@globalfoundries.com"}], "emails": [{"type": "custom", "primary": true, "address": "joseph.smithjr@globalfoundries.com"}], "name": {"fullName": "Joseph Smith Jr", "givenName": "Joseph", "familyName": "Smith Jr"}}, {"organizations": [{"department": "SS TOOL INSTALL", "customType": "work", "primary": true, "name": "AM Technical Solutions", "title": "Contractor"}], "primaryEmail": "joshua.murray@globalfoundries.com", "addresses": [{"locality": "Malta", "country": "United States", "region": "New York", "formatted": "Malta New York NY 12020 United States", "primary": true, "postalCode": "NY 12020", "type": "work"}], "thumbnailPhotoUrl": "https://plus.google.com/_/focus/photos/public/AIbEiAIAAABDCLzmz92lns3hbSILdmNhcmRfcGhvdG8qKGQzYjJkMjExNzg3NWUzN2FlYWM5ZGQyZThkMjYzOGFmMGVlZjYwNTkwAXKI4CwUMgeR4EVTrAIQQ3bgnRZM", "relations": [{"type": "manager", "value": "Darren.Thomas@globalfoundries.com"}], "emails": [{"type": "custom", "primary": true, "address": "joshua.murray@globalfoundries.com"}], "name": {"fullName": "Joshua Murray", "givenName": "Joshua", "familyName": "Murray"}}, {"organizations": [{"name": "AM Technical Solutions", "title": "Contractor", "customType": "work", "primary": true, "location": "J10473T", "department": "SS TOOL INSTALL"}], "primaryEmail": "julio.gonzalez@globalfoundries.com", "addresses": [{"locality": "Malta", "country": "United States", "region": "New York", "formatted": "Malta New York NY 12020 United States", "primary": true, "postalCode": "NY 12020", "type": "work"}], "phones": [{"type": "work", "value": "66567"}, {"type": "home", "value": "+15183056567"}], "relations": [{"type": "manager", "value": "Darren.Thomas@globalfoundries.com"}], "emails": [{"type": "custom", "primary": true, "address": "julio.gonzalez@globalfoundries.com"}], "name": {"fullName": "Julio Gonzalez", "givenName": "Julio", "familyName": "Gonzalez"}}, {"organizations": [{"department": "SS TOOL INSTALL", "customType": "work", "primary": true, "name": "AM Technical Solutions", "title": "Contractor"}], "primaryEmail": "katie.dobbins@globalfoundries.com", "addresses": [{"locality": "Malta", "country": "United States", "region": "New York", "formatted": "Malta New York NY 12020 United States", "primary": true, "postalCode": "NY 12020", "type": "work"}], "thumbnailPhotoUrl": "https://plus.google.com/_/focus/photos/private/AIbEiAIAAABDCIintYyshre_JiILdmNhcmRfcGhvdG8qKDBmMWQ1ZDdlZjczM2ZlYmM2N2VmNzQ3M2M3MzI5ZDczZDcwZjc5OWYwAdKa_jYw6PCH2WKde5cz9dNscDr5", "relations": [{"type": "manager", "value": "Darren.Thomas@globalfoundries.com"}], "emails": [{"type": "custom", "primary": true, "address": "katie.dobbins@globalfoundries.com"}], "name": {"fullName": "Katie Dobbins", "givenName": "Katie", "familyName": "Dobbins"}}, {"organizations": [{"department": "SS TOOL INSTALL", "customType": "work", "primary": true, "name": "AM Technical Solutions", "title": "Contractor"}], "primaryEmail": "kay.hudasch@globalfoundries.com", "addresses": [{"locality": "Malta", "country": "United States", "region": "New York", "formatted": "Bldg: Dresden Malta New York NY 12020 United States", "primary": true, "streetAddress": "Bldg: Dresden", "postalCode": "NY 12020", "type": "work"}], "thumbnailPhotoUrl": "https://plus.google.com/_/focus/photos/public/AIbEiAIAAABDCOGLvdbGyKyYZCILdmNhcmRfcGhvdG8qKDRmNmNjZDdlYTU3ODUyNTY1YjY4NmNlMDhkNDNhMGI1OTc3ZDJhOGIwAZFTctr23N3wjZpGQrGDjyTXCLwZ", "relations": [{"type": "manager", "value": "Darren.Thomas@globalfoundries.com"}], "emails": [{"type": "custom", "primary": true, "address": "kay.hudasch@globalfoundries.com"}], "name": {"fullName": "Kay Hudasch", "givenName": "Kay", "familyName": "Hudasch"}}, {"organizations": [{"department": "SS TOOL INSTALL", "customType": "work", "primary": true, "name": "FST Technical Service", "title": "Contractor"}], "primaryEmail": "keith.coulter@globalfoundries.com", "addresses": [{"locality": "Malta", "country": "United States", "region": "New York", "formatted": "Malta New York NY 12020 United States", "primary": true, "postalCode": "NY 12020", "type": "work"}], "relations": [{"type": "manager", "value": "Darren.Thomas@globalfoundries.com"}], "emails": [{"type": "custom", "primary": true, "address": "keith.coulter@globalfoundries.com"}], "name": {"fullName": "Keith Coulter", "givenName": "Keith", "familyName": "Coulter"}}, {"organizations": [{"name": "FST Technical Services", "title": "Contractor", "customType": "work", "primary": true, "location": "J10444", "department": "SS TOOL INSTALL"}], "primaryEmail": "keith.fisk@globalfoundries.com", "addresses": [{"locality": "Malta", "country": "United States", "region": "New York", "formatted": "Bldg: Malta Malta New York NY 12020 United States", "primary": true, "streetAddress": "Bldg: Malta", "postalCode": "NY 12020", "type": "work"}], "phones": [{"type": "work", "value": "69794"}, {"type": "home", "value": "+15183059794"}], "relations": [{"type": "manager", "value": "Darren.Thomas@globalfoundries.com"}], "emails": [{"type": "custom", "primary": true, "address": "keith.fisk@globalfoundries.com"}], "name": {"fullName": "Keith Fisk", "givenName": "Keith", "familyName": "Fisk"}}, {"organizations": [{"department": "SS TOOL INSTALL", "customType": "work", "primary": true, "name": "AM Technical Solutions", "title": "Contractor"}], "primaryEmail": "keith.kennedy@globalfoundries.com", "addresses": [{"locality": "Malta", "country": "United States", "region": "New York", "formatted": "Malta New York NY 12020 United States", "primary": true, "postalCode": "NY 12020", "type": "work"}], "thumbnailPhotoUrl": "https://plus.google.com/_/focus/photos/private/AIbEiAIAAABDCKPhoPKw1f2kCyILdmNhcmRfcGhvdG8qKDE1YmY5OTNiMTFkOTVmOGM2ZTZjYjJlY2FmYTI3MTZiZDZhYWQ5ZTkwAUzVrBJq4DgfHOgF3n0vSiLDbL6U", "relations": [{"type": "manager", "value": "Darren.Thomas@globalfoundries.com"}], "emails": [{"type": "custom", "primary": true, "address": "keith.kennedy@globalfoundries.com"}], "name": {"fullName": "Keith Kennedy", "givenName": "Keith", "familyName": "Kennedy"}}, {"organizations": [{"name": "AM Technical Solutions", "title": "Contractor", "customType": "work", "primary": true, "location": "J10423", "department": "SS TOOL INSTALL"}], "primaryEmail": "kenneth.packer@globalfoundries.com", "addresses": [{"locality": "Malta", "country": "United States", "region": "New York", "formatted": "Malta New York NY 12020 United States", "primary": true, "postalCode": "NY 12020", "type": "work"}], "phones": [{"type": "work", "value": "61309"}, {"type": "home", "value": "+15183051309"}], "thumbnailPhotoUrl": "https://plus.google.com/_/focus/photos/public/AIbEiAIAAABDCJ3Sl-2yt6u2OiILdmNhcmRfcGhvdG8qKDFhY2NjOGJmMjU4MmNhNTE1NjA1MzkzZDRjZjEzMWYyNGUxNjFlNGMwASUK0BLLaMW7lXxO4wHmc58lmVuh", "relations": [{"type": "manager", "value": "Darren.Thomas@globalfoundries.com"}], "emails": [{"type": "custom", "primary": true, "address": "kenneth.packer@globalfoundries.com"}], "name": {"fullName": "Kenneth Packer", "givenName": "Kenneth", "familyName": "Packer"}}, {"organizations": [{"name": "AM Technical Solutions", "title": "Contractor", "customType": "work", "primary": true, "location": "J10435", "department": "SS TOOL INSTALL"}], "primaryEmail": "kenneth.rhodes@globalfoundries.com", "addresses": [{"locality": "Malta", "country": "United States", "region": "New York", "formatted": "Bldg: Malta Malta New York NY 12020 United States", "primary": true, "streetAddress": "Bldg: Malta", "postalCode": "NY 12020", "type": "work"}], "phones": [{"type": "work", "value": "66475"}, {"type": "home", "value": "+15183056475"}], "thumbnailPhotoUrl": "https://plus.google.com/_/focus/photos/public/AIbEiAIAAABDCPjIt4C4pZ24ViILdmNhcmRfcGhvdG8qKDQ1NjY0ZTUyODM3NzdjMzE5YjdlY2E1ZGExZTZjOGVlMzU3ZGQzZjAwAZMrF7WCx2WAjuUxhltmc49iMcbZ", "relations": [{"type": "manager", "value": "Darren.Thomas@globalfoundries.com"}], "emails": [{"type": "custom", "primary": true, "address": "kenneth.rhodes@globalfoundries.com"}], "name": {"fullName": "Kenneth Rhodes", "givenName": "Kenneth", "familyName": "Rhodes"}}, {"organizations": [{"name": "FST Technical Services", "title": "Contractor", "customType": "work", "primary": true, "location": "J10117", "department": "SS TOOL INSTALL"}], "primaryEmail": "kenny.hilton@globalfoundries.com", "addresses": [{"locality": "Malta", "country": "United States", "region": "New York", "formatted": "Bldg: Malta Malta New York NY 12020 United States", "primary": true, "streetAddress": "Bldg: Malta", "postalCode": "NY 12020", "type": "work"}], "phones": [{"type": "work", "value": "69781"}, {"type": "home", "value": "+15183059781"}], "thumbnailPhotoUrl": "https://plus.google.com/_/focus/photos/public/AIbEiAIAAABECMeOr7W8opO14wEiC3ZjYXJkX3Bob3RvKig4YTNhMTE5YTY5MDE5Y2ViODRmZGE0OWIzZTZhNGY4YmQ4NTBhNDU2MAF1vgQUQTgFITofUPY9lgH3rjQtYA", "relations": [{"type": "manager", "value": "Darren.Thomas@globalfoundries.com"}], "emails": [{"type": "custom", "primary": true, "address": "kenny.hilton@globalfoundries.com"}], "name": {"fullName": "Kenny Hilton", "givenName": "Kenny", "familyName": "Hilton"}}, {"organizations": [{"name": "AM Technical Solutions", "title": "Contractor", "customType": "work", "primary": true, "location": "J10378", "department": "SS TOOL INSTALL"}], "primaryEmail": "kevin.alexander@globalfoundries.com", "addresses": [{"locality": "Malta", "country": "United States", "region": "New York", "formatted": "Malta New York NY 12020 United States", "primary": true, "postalCode": "NY 12020", "type": "work"}], "phones": [{"type": "work", "value": "61768"}, {"type": "home", "value": "+15183051768"}], "relations": [{"type": "manager", "value": "Darren.Thomas@globalfoundries.com"}], "emails": [{"type": "custom", "primary": true, "address": "kevin.alexander@globalfoundries.com"}], "name": {"fullName": "Kevin Alexander", "givenName": "Kevin", "familyName": "Alexander"}}, {"organizations": [{"department": "SS TOOL INSTALL", "customType": "work", "primary": true, "name": "AM Technical Solutions", "title": "Contractor"}], "primaryEmail": "kieran.heneghan@globalfoundries.com", "addresses": [{"locality": "Malta", "country": "United States", "region": "New York", "formatted": "Bldg: Malta Malta New York NY 12020 United States", "primary": true, "streetAddress": "Bldg: Malta", "postalCode": "NY 12020", "type": "work"}], "relations": [{"type": "manager", "value": "Darren.Thomas@globalfoundries.com"}], "emails": [{"type": "custom", "primary": true, "address": "kieran.heneghan@globalfoundries.com"}], "name": {"fullName": "Kieran Heneghan", "givenName": "Kieran", "familyName": "Heneghan"}}, {"organizations": [{"name": "AM Technical Solutions", "title": "Contractor", "customType": "work", "primary": true, "location": "M131", "department": "SS TOOL INSTALL"}], "primaryEmail": "kimberly.ross@globalfoundries.com", "addresses": [{"locality": "Malta", "country": "United States", "region": "New York", "formatted": "Bldg: Malta Malta New York NY 12020 United States", "primary": true, "streetAddress": "Bldg: Malta", "postalCode": "NY 12020", "type": "work"}], "phones": [{"type": "work", "value": "69413"}, {"type": "home", "value": "+15183059413"}], "thumbnailPhotoUrl": "https://plus.google.com/_/focus/photos/private/AIbEiAIAAABDCKTwhM-8_9SXGSILdmNhcmRfcGhvdG8qKDMxNGU1MmNjOTFkMTU5OGQwOGQ5OGMxZTllMGI5MTA4NTQ4ZDhkNDUwAX7n9K7PLBHA2fddmGfqJeI_EM6o", "relations": [{"type": "manager", "value": "Darren.Thomas@globalfoundries.com"}], "emails": [{"type": "custom", "primary": true, "address": "kimberly.ross@globalfoundries.com"}], "name": {"fullName": "Kimberly Ross", "givenName": "Kimberly", "familyName": "Ross"}}, {"organizations": [{"department": "SS TOOL INSTALL", "customType": "work", "primary": true, "name": "AM Technical Solutions", "title": "Contractor"}], "primaryEmail": "larry.leonhardt@globalfoundries.com", "addresses": [{"locality": "Malta", "country": "United States", "region": "New York", "formatted": "Malta New York NY 12020 United States", "primary": true, "postalCode": "NY 12020", "type": "work"}], "relations": [{"type": "manager", "value": "Darren.Thomas@globalfoundries.com"}], "emails": [{"type": "custom", "primary": true, "address": "larry.leonhardt@globalfoundries.com"}], "name": {"fullName": "Larry Leonhardt", "givenName": "Larry", "familyName": "Leonhardt"}}, {"organizations": [{"name": "AM Technical Solutions", "title": "Contractor", "customType": "work", "primary": true, "location": "J10425", "department": "SS TOOL INSTALL"}], "primaryEmail": "laurel.christopher@globalfoundries.com", "addresses": [{"locality": "Malta", "country": "United States", "region": "New York", "formatted": "Malta New York NY 12020 United States", "primary": true, "postalCode": "NY 12020", "type": "work"}], "phones": [{"type": "work", "value": "69773"}, {"type": "home", "value": "+15183059773"}], "thumbnailPhotoUrl": "https://plus.google.com/_/focus/photos/private/AIbEiAIAAABECO3fgt6zrtGEjQEiC3ZjYXJkX3Bob3RvKig0NzU2MDEyODhkYjc5YmM4ZmM0OGNhODBkMGQ4YjVmMGFhNTczNGIxMAGPzeNDPcAJ2KYRqTRQwQ8UK2Es7Q", "relations": [{"type": "manager", "value": "Darren.Thomas@globalfoundries.com"}], "emails": [{"type": "custom", "primary": true, "address": "laurel.christopher@globalfoundries.com"}], "name": {"fullName": "Laurel Christopher", "givenName": "Laurel", "familyName": "Christopher"}}, {"organizations": [{"name": "AM Technical Solutions", "title": "Contractor", "customType": "work", "primary": true, "location": "J10415", "department": "SS TOOL INSTALL"}], "primaryEmail": "lawrence.pluid@globalfoundries.com", "addresses": [{"locality": "Malta", "country": "United States", "region": "New York", "formatted": "Malta New York NY 12020 United States", "primary": true, "postalCode": "NY 12020", "type": "work"}], "phones": [{"type": "work", "value": "61425"}, {"type": "home", "value": "+15183051425"}], "relations": [{"type": "manager", "value": "Darren.Thomas@globalfoundries.com"}], "emails": [{"type": "custom", "primary": true, "address": "lawrence.pluid@globalfoundries.com"}], "name": {"fullName": "Lawrence Pluid", "givenName": "Lawrence", "familyName": "Pluid"}}, {"organizations": [{"name": "AM Technical Solutions", "title": "Contractor", "customType": "work", "primary": true, "location": "Trailer 1 - M105", "department": "SS TOOL INSTALL"}], "primaryEmail": "lisa.christopher@globalfoundries.com", "addresses": [{"locality": "Malta", "country": "United States", "region": "New York", "formatted": "Malta New York NY 12020 United States", "primary": true, "postalCode": "NY 12020", "type": "work"}], "phones": [{"type": "work", "value": "67925"}, {"type": "home", "value": "+15183057925"}], "thumbnailPhotoUrl": "https://plus.google.com/_/focus/photos/public/AIbEiAIAAABECIPjx-mNz8XK0QEiC3ZjYXJkX3Bob3RvKihhZDI4NzJjNjRkNjJhZjU4N2VmZjgzZjJlMTlmOGFhOGYwZTg5NzVhMAGGZ8te49oyM5kBu90liUGUC72wJA", "relations": [{"type": "manager", "value": "Darren.Thomas@globalfoundries.com"}], "emails": [{"type": "custom", "primary": true, "address": "lisa.christopher@globalfoundries.com"}], "name": {"fullName": "Lisa Christopher", "givenName": "Lisa", "familyName": "Christopher"}}, {"organizations": [{"name": "AM Technical Solutions", "title": "Contractor", "customType": "work", "primary": true, "location": "J10436", "department": "SS TOOL INSTALL"}], "primaryEmail": "lottie.fish@globalfoundries.com", "addresses": [{"locality": "Malta", "country": "United States", "region": "New York", "formatted": "Bldg: Malta Malta New York NY 12020 United States", "primary": true, "streetAddress": "Bldg: Malta", "postalCode": "NY 12020", "type": "work"}], "phones": [{"type": "work", "value": "69775"}, {"type": "home", "value": "+15183059775"}], "relations": [{"type": "manager", "value": "Darren.Thomas@globalfoundries.com"}], "emails": [{"type": "custom", "primary": true, "address": "lottie.fish@globalfoundries.com"}], "name": {"fullName": "Lottie Fish", "givenName": "Lottie", "familyName": "Fish"}}, {"organizations": [{"name": "AM Technical Solutions", "title": "Contractor", "customType": "work", "primary": true, "location": "J10351", "department": "SS TOOL INSTALL"}], "primaryEmail": "louis.morrison@globalfoundries.com", "addresses": [{"locality": "Malta", "country": "United States", "region": "New York", "formatted": "Bldg: Malta Malta New York NY 12020 United States", "primary": true, "streetAddress": "Bldg: Malta", "postalCode": "NY 12020", "type": "work"}], "phones": [{"type": "work", "value": "66946"}, {"type": "home", "value": "+15183056946"}], "relations": [{"type": "manager", "value": "Darren.Thomas@globalfoundries.com"}], "emails": [{"type": "custom", "primary": true, "address": "louis.morrison@globalfoundries.com"}], "name": {"fullName": "Louis Morrison", "givenName": "Louis", "familyName": "Morrison"}}, {"organizations": [{"name": "AM Technical Solutions", "title": "Contractor", "customType": "work", "primary": true, "location": "J10362", "department": "SS TOOL INSTALL"}], "primaryEmail": "lucas.gregg@globalfoundries.com", "addresses": [{"locality": "Malta", "country": "United States", "region": "New York", "formatted": "Malta New York NY 12020 United States", "primary": true, "postalCode": "NY 12020", "type": "work"}], "phones": [{"type": "work", "value": "61748"}, {"type": "home", "value": "+15183051748"}], "relations": [{"type": "manager", "value": "Darren.Thomas@globalfoundries.com"}], "emails": [{"type": "custom", "primary": true, "address": "lucas.gregg@globalfoundries.com"}], "name": {"fullName": "Lucas Gregg", "givenName": "Lucas", "familyName": "Gregg"}}, {"organizations": [{"name": "AM Technical Solutions", "title": "Contractor", "customType": "work", "primary": true, "location": "J10479T", "department": "SS TOOL INSTALL"}], "primaryEmail": "luis.garcia@globalfoundries.com", "addresses": [{"locality": "Malta", "country": "United States", "region": "New York", "formatted": "Malta New York NY 12020 United States", "primary": true, "postalCode": "NY 12020", "type": "work"}], "phones": [{"type": "work", "value": "61821"}, {"type": "home", "value": "+15183051821"}], "relations": [{"type": "manager", "value": "Darren.Thomas@globalfoundries.com"}], "emails": [{"primary": true, "address": "luis.garcia@globalfoundries.com"}], "name": {"fullName": "Luis Garcia", "givenName": "Luis", "familyName": "Garcia"}}, {"organizations": [{"name": "AM Technical Solutions", "title": "Contractor", "customType": "work", "primary": true, "location": "J10430", "department": "SS TOOL INSTALL"}], "primaryEmail": "lynn.hayes@globalfoundries.com", "addresses": [{"locality": "Malta", "country": "United States", "region": "New York", "formatted": "Malta New York NY 12020 United States", "primary": true, "postalCode": "NY 12020", "type": "work"}], "phones": [{"type": "work", "value": "69774"}, {"type": "home", "value": "+15183059774"}], "relations": [{"type": "manager", "value": "Darren.Thomas@globalfoundries.com"}], "emails": [{"type": "custom", "primary": true, "address": "lynn.hayes@globalfoundries.com"}], "name": {"fullName": "Lynn Hayes", "givenName": "Lynn", "familyName": "Hayes"}}, {"organizations": [{"department": "SS TOOL INSTALL", "customType": "work", "primary": true, "name": "AM Technical Solutions", "title": "Contractor"}], "primaryEmail": "lyxa.mcalexander@globalfoundries.com", "addresses": [{"locality": "Malta", "country": "United States", "region": "New York", "formatted": "Malta New York NY 12020 United States", "primary": true, "postalCode": "NY 12020", "type": "work"}], "relations": [{"type": "manager", "value": "Darren.Thomas@globalfoundries.com"}], "emails": [{"type": "custom", "primary": true, "address": "lyxa.mcalexander@globalfoundries.com"}], "name": {"fullName": "Lyxa McAlexander", "givenName": "Lyxa", "familyName": "McAlexander"}}, {"organizations": [{"name": "AM Technical Solutions", "title": "Contractor", "customType": "work", "primary": true, "location": "J10384", "department": "SS TOOL INSTALL"}], "primaryEmail": "malcolm.hind@globalfoundries.com", "addresses": [{"locality": "Malta", "country": "United States", "region": "New York", "formatted": "Malta New York NY 12020 United States", "primary": true, "postalCode": "NY 12020", "type": "work"}], "phones": [{"type": "work", "value": "61745"}, {"type": "home", "value": "+15183051745"}], "relations": [{"type": "manager", "value": "Darren.Thomas@globalfoundries.com"}], "emails": [{"type": "custom", "primary": true, "address": "malcolm.hind@globalfoundries.com"}], "name": {"fullName": "Malcolm Hind", "givenName": "Malcolm", "familyName": "Hind"}}, {"organizations": [{"department": "SS TOOL INSTALL", "customType": "work", "primary": true, "name": "AM Technical Solutions", "title": "Contractor"}], "primaryEmail": "mario.garcia@globalfoundries.com", "addresses": [{"locality": "Malta", "country": "United States", "region": "New York", "formatted": "Malta New York NY 12020 United States", "primary": true, "postalCode": "NY 12020", "type": "work"}], "thumbnailPhotoUrl": "https://plus.google.com/_/focus/photos/private/AIbEiAIAAABECNfSramp_rDc-AEiC3ZjYXJkX3Bob3RvKig4YjEyYTAzNjY2ZWRkNTRkOGJjZWE4NDMzYjBkMzI2MjdhNWU0MTYzMAHhgMRapx59zjRutetJBEkGf5MPOw", "relations": [{"type": "manager", "value": "Darren.Thomas@globalfoundries.com"}], "emails": [{"type": "custom", "primary": true, "address": "mario.garcia@globalfoundries.com"}], "name": {"fullName": "Mario Garcia", "givenName": "Mario", "familyName": "Garcia"}}, {"organizations": [{"department": "SS TOOL INSTALL", "customType": "work", "primary": true, "name": "FST Technical Services", "title": "Contractor"}], "primaryEmail": "marquita.pittmann@globalfoundries.com", "addresses": [{"locality": "Malta", "country": "United States", "region": "New York", "formatted": "Bldg: Malta Malta New York NY 12020 United States", "primary": true, "streetAddress": "Bldg: Malta", "postalCode": "NY 12020", "type": "work"}], "relations": [{"type": "manager", "value": "Darren.Thomas@globalfoundries.com"}], "emails": [{"primary": true, "address": "marquita.pittmann@globalfoundries.com"}], "name": {"fullName": "Marquita Pittmann", "givenName": "Marquita", "familyName": "Pittmann"}}, {"organizations": [{"name": "FST Technical Services", "title": "Contractor", "customType": "work", "primary": true, "location": "J10131", "department": "SS TOOL INSTALL"}], "primaryEmail": "matt.dottl@globalfoundries.com", "addresses": [{"locality": "Malta", "country": "United States", "region": "New York", "formatted": "Bldg: Malta Malta New York NY 12020 United States", "primary": true, "streetAddress": "Bldg: Malta", "postalCode": "NY 12020", "type": "work"}], "phones": [{"type": "work", "value": "69793"}, {"type": "home", "value": "+15183059793"}], "relations": [{"type": "manager", "value": "Darren.Thomas@globalfoundries.com"}], "emails": [{"type": "custom", "primary": true, "address": "matt.dottl@globalfoundries.com"}], "name": {"fullName": "Matt Dottl", "givenName": "Matt", "familyName": "Dottl"}}, {"organizations": [{"department": "SS TOOL INSTALL", "customType": "work", "primary": true, "name": "AM Technical Solutions", "title": "Contractor"}], "primaryEmail": "matthew.bendure@globalfoundries.com", "addresses": [{"locality": "Malta", "country": "United States", "region": "New York", "formatted": "Malta New York NY 12020 United States", "primary": true, "postalCode": "NY 12020", "type": "work"}], "relations": [{"type": "manager", "value": "Darren.Thomas@globalfoundries.com"}], "emails": [{"type": "custom", "primary": true, "address": "matthew.bendure@globalfoundries.com"}], "name": {"fullName": "Matthew Bendure", "givenName": "Matthew", "familyName": "Bendure"}}, {"organizations": [{"name": "AM Technical Solutions", "title": "Contractor", "customType": "work", "primary": true, "location": "J10376", "department": "SS TOOL INSTALL"}], "primaryEmail": "matthew.gillispie@globalfoundries.com", "addresses": [{"locality": "Malta", "country": "United States", "region": "New York", "formatted": "Malta New York NY 12020 United States", "primary": true, "postalCode": "NY 12020", "type": "work"}], "phones": [{"type": "work", "value": "61773"}, {"type": "home", "value": "+15183051773"}], "relations": [{"type": "manager", "value": "Darren.Thomas@globalfoundries.com"}], "emails": [{"type": "custom", "primary": true, "address": "matthew.gillispie@globalfoundries.com"}], "name": {"fullName": "Matthew Gillispie", "givenName": "Matthew", "familyName": "Gillispie"}}, {"organizations": [{"name": "FST Technical Services", "title": "Contractor", "customType": "work", "primary": true, "location": "J10426", "department": "SS TOOL INSTALL"}], "primaryEmail": "maureen.engle@globalfoundries.com", "addresses": [{"locality": "Malta", "country": "United States", "region": "New York", "formatted": "Malta New York NY 12020 United States", "primary": true, "postalCode": "NY 12020", "type": "work"}], "phones": [{"type": "work", "value": "67910"}, {"type": "home", "value": "+15183057910"}], "thumbnailPhotoUrl": "https://plus.google.com/_/focus/photos/private/AIbEiAIAAABECIvE5ouBm8SblgEiC3ZjYXJkX3Bob3RvKig0MjUyNWUxZDBkMDA0ZDVlMWJiYmJlYTIxZGYxZjAyNWE0YWM3ZDdkMAHdQO2wZ1V3mpqSF-WMOEw6hctR4Q", "relations": [{"type": "manager", "value": "Darren.Thomas@globalfoundries.com"}], "emails": [{"type": "custom", "primary": true, "address": "maureen.engle@globalfoundries.com"}], "name": {"fullName": "Maureen Engle", "givenName": "Maureen", "familyName": "Engle"}}, {"organizations": [{"name": "AM Technical Solutions", "title": "Contractor", "customType": "work", "primary": true, "location": "M132", "department": "SS TOOL INSTALL"}], "primaryEmail": "melanie.weils@globalfoundries.com", "addresses": [{"locality": "Malta", "country": "United States", "region": "New York", "formatted": "Bldg: Malta Malta New York NY 12020 United States", "primary": true, "streetAddress": "Bldg: Malta", "postalCode": "NY 12020", "type": "work"}], "phones": [{"type": "work", "value": "67377"}, {"type": "home", "value": "+15183057377"}], "thumbnailPhotoUrl": "https://plus.google.com/_/focus/photos/private/AIbEiAIAAABECK-iifzimp278gEiC3ZjYXJkX3Bob3RvKigzNzJhOTAyMDAzMjVlYWRiY2IyNTBkNzM3Y2RhYWJhY2JmMDc0MGRiMAHsN4oUNncgP_ZlawfSBoPWY4WL4g", "relations": [{"type": "manager", "value": "Darren.Thomas@globalfoundries.com"}], "emails": [{"type": "custom", "primary": true, "address": "melanie.weils@globalfoundries.com"}], "name": {"fullName": "Melanie Weils", "givenName": "Melanie", "familyName": "Weils"}}, {"organizations": [{"name": "AM Technical Solutions", "title": "Contractor", "customType": "work", "primary": true, "location": "J10475T", "department": "SS TOOL INSTALL"}], "primaryEmail": "michael.barbour@globalfoundries.com", "addresses": [{"locality": "Malta", "country": "United States", "region": "New York", "formatted": "Malta New York NY 12020 United States", "primary": true, "postalCode": "NY 12020", "type": "work"}], "phones": [{"type": "work", "value": "61416"}, {"type": "home", "value": "+15183051416"}], "relations": [{"type": "manager", "value": "Darren.Thomas@globalfoundries.com"}], "emails": [{"type": "custom", "primary": true, "address": "michael.barbour@globalfoundries.com"}], "name": {"fullName": "Michael Barbour", "givenName": "Michael", "familyName": "Barbour"}}, {"organizations": [{"department": "SS TOOL INSTALL", "customType": "work", "primary": true, "name": "AM Technical Solutions", "title": "Contractor"}], "primaryEmail": "michael.coe@globalfoundries.com", "addresses": [{"locality": "Malta", "country": "United States", "region": "New York", "formatted": "Malta New York NY 12020 United States", "primary": true, "postalCode": "NY 12020", "type": "work"}], "relations": [{"type": "manager", "value": "Darren.Thomas@globalfoundries.com"}], "emails": [{"type": "custom", "primary": true, "address": "michael.coe@globalfoundries.com"}], "name": {"fullName": "Michael Coe", "givenName": "Michael", "familyName": "Coe"}}, {"organizations": [{"name": "AM Technical Solutions", "title": "Contractor", "customType": "work", "primary": true, "location": "J10350T", "department": "SS TOOL INSTALL"}], "primaryEmail": "michael.foye@globalfoundries.com", "addresses": [{"locality": "Malta", "country": "United States", "region": "New York", "formatted": "Malta New York NY 12020 United States", "primary": true, "postalCode": "NY 12020", "type": "work"}], "phones": [{"type": "work", "value": "61777"}, {"type": "home", "value": "+15183051777"}], "relations": [{"type": "manager", "value": "Darren.Thomas@globalfoundries.com"}], "emails": [{"type": "custom", "primary": true, "address": "michael.foye@globalfoundries.com"}], "name": {"fullName": "Michael Foye", "givenName": "Michael", "familyName": "Foye"}}, {"organizations": [{"department": "SS TOOL INSTALL", "customType": "work", "primary": true, "name": "AM Technical Solutions", "title": "Contractor"}], "primaryEmail": "michael.oconnell@globalfoundries.com", "addresses": [{"locality": "Malta", "country": "United States", "region": "New York", "formatted": "Malta New York NY 12020 United States", "primary": true, "postalCode": "NY 12020", "type": "work"}], "relations": [{"type": "manager", "value": "Darren.Thomas@globalfoundries.com"}], "emails": [{"type": "custom", "primary": true, "address": "michael.oconnell@globalfoundries.com"}], "name": {"fullName": "Michael OConnell", "givenName": "Michael", "familyName": "OConnell"}}, {"organizations": [{"department": "SS TOOL INSTALL", "customType": "work", "primary": true, "name": "Dynamic Systems Inc.", "title": "Contractor"}], "primaryEmail": "michael.palmer@globalfoundries.com", "addresses": [{"locality": "Malta", "country": "United States", "region": "New York", "formatted": "Malta New York NY 12020 United States", "primary": true, "postalCode": "NY 12020", "type": "work"}], "relations": [{"type": "manager", "value": "Darren.Thomas@globalfoundries.com"}], "emails": [{"type": "custom", "primary": true, "address": "michael.palmer@globalfoundries.com"}], "name": {"fullName": "Michael Palmer", "givenName": "Michael", "familyName": "Palmer"}}, {"organizations": [{"name": "FST Technical Service", "title": "Contractor", "customType": "work", "primary": true, "location": "J10428", "department": "SS TOOL INSTALL"}], "primaryEmail": "michael.rogers@globalfoundries.com", "addresses": [{"locality": "Malta", "country": "United States", "region": "New York", "formatted": "Malta New York NY 12020 United States", "primary": true, "postalCode": "NY 12020", "type": "work"}], "phones": [{"type": "work", "value": "66067"}, {"type": "home", "value": "+15183056067"}], "relations": [{"type": "manager", "value": "Darren.Thomas@globalfoundries.com"}], "emails": [{"type": "custom", "primary": true, "address": "michael.rogers@globalfoundries.com"}], "name": {"fullName": "Michael Rogers", "givenName": "Michael", "familyName": "Rogers"}}, {"organizations": [{"department": "SS TOOL INSTALL", "customType": "work", "primary": true, "name": "AM Technical Solutions", "title": "Contractor"}], "primaryEmail": "michelle.kinsley@globalfoundries.com", "addresses": [{"locality": "Malta", "country": "United States", "region": "New York", "formatted": "Malta New York NY 12020 United States", "primary": true, "postalCode": "NY 12020", "type": "work"}], "thumbnailPhotoUrl": "https://plus.google.com/_/focus/photos/public/AIbEiAIAAABECKvYxbbE5N6EvQEiC3ZjYXJkX3Bob3RvKigyZTUwNjQ5YTE1MjU0N2U1ODE5NDBkMjViODg3MDk4NjkzYTc0NmFmMAFmNNypTC8DXf-jxBAWd8OBSJuVfA", "relations": [{"type": "manager", "value": "Darren.Thomas@globalfoundries.com"}], "emails": [{"type": "custom", "primary": true, "address": "michelle.kinsley@globalfoundries.com"}], "name": {"fullName": "Michelle Kinsley", "givenName": "Michelle", "familyName": "Kinsley"}}, {"organizations": [{"department": "SS TOOL INSTALL", "customType": "work", "primary": true, "name": "FST Technical Services", "title": "Contractor"}], "primaryEmail": "morton.cooper@globalfoundries.com", "addresses": [{"locality": "Malta", "country": "United States", "region": "New York", "formatted": "Malta New York NY 12020 United States", "primary": true, "postalCode": "NY 12020", "type": "work"}], "relations": [{"type": "manager", "value": "Darren.Thomas@globalfoundries.com"}], "emails": [{"type": "custom", "primary": true, "address": "morton.cooper@globalfoundries.com"}], "name": {"fullName": "Morton Cooper", "givenName": "Morton", "familyName": "Cooper"}}, {"organizations": [{"name": "AM Technical Solutions", "title": "Contractor", "customType": "work", "primary": true, "location": "J10417", "department": "SS TOOL INSTALL"}], "primaryEmail": "muhamed.shire@globalfoundries.com", "addresses": [{"locality": "Malta", "country": "United States", "region": "New York", "formatted": "Malta New York NY 12020 United States", "primary": true, "postalCode": "NY 12020", "type": "work"}], "phones": [{"type": "work", "value": "69280"}, {"type": "home", "value": "+15183059280"}], "relations": [{"type": "manager", "value": "Darren.Thomas@globalfoundries.com"}], "emails": [{"type": "custom", "primary": true, "address": "muhamed.shire@globalfoundries.com"}], "name": {"fullName": "Muhamed Shire", "givenName": "Muhamed", "familyName": "Shire"}}, {"organizations": [{"name": "AM Technical Solutions", "title": "Contractor", "customType": "work", "primary": true, "location": "J10395", "department": "SS TOOL INSTALL"}], "primaryEmail": "nathan.rask@globalfoundries.com", "addresses": [{"locality": "Malta", "country": "United States", "region": "New York", "formatted": "Malta New York NY 12020 United States", "primary": true, "postalCode": "NY 12020", "type": "work"}], "phones": [{"type": "work", "value": "61308"}, {"type": "home", "value": "+15183051308"}], "relations": [{"type": "manager", "value": "Darren.Thomas@globalfoundries.com"}], "emails": [{"type": "custom", "primary": true, "address": "nathan.rask@globalfoundries.com"}], "name": {"fullName": "Nathan Rask", "givenName": "Nathan", "familyName": "Rask"}}, {"organizations": [{"name": "AM Technical Solutions", "title": "Contractor", "customType": "work", "primary": true, "location": "J10359", "department": "SS TOOL INSTALL"}], "primaryEmail": "norma.cruz@globalfoundries.com", "addresses": [{"locality": "Malta", "country": "United States", "region": "New York", "formatted": "Malta New York NY 12020 United States", "primary": true, "postalCode": "NY 12020", "type": "work"}], "phones": [{"type": "work", "value": "61864"}, {"type": "home", "value": "+15183051864"}], "thumbnailPhotoUrl": "https://plus.google.com/_/focus/photos/private/AIbEiAIAAABECNbI07ng36qtzAEiC3ZjYXJkX3Bob3RvKig0MGFjMGU2Y2VjNTIwNGI1OTA3ZGRkNmEzMzM4ZjcwMjhjY2Y1ZWM0MAGJf8Bn_hKtCFEkApcmINtZQDaQdQ", "relations": [{"type": "manager", "value": "Darren.Thomas@globalfoundries.com"}], "emails": [{"type": "custom", "primary": true, "address": "norma.cruz@globalfoundries.com"}], "name": {"fullName": "Norma Cruz", "givenName": "Norma", "familyName": "Cruz"}}, {"organizations": [{"name": "AM Technical Solutions", "title": "Contractor", "customType": "work", "primary": true, "location": "J10394", "department": "SS TOOL INSTALL"}], "primaryEmail": "osman.carbajal@globalfoundries.com", "addresses": [{"locality": "Malta", "country": "United States", "region": "New York", "formatted": "Malta New York NY 12020 United States", "primary": true, "postalCode": "NY 12020", "type": "work"}], "phones": [{"type": "work", "value": "65140"}, {"type": "home", "value": "+15183055140"}], "relations": [{"type": "manager", "value": "Darren.Thomas@globalfoundries.com"}], "emails": [{"type": "custom", "primary": true, "address": "osman.carbajal@globalfoundries.com"}], "name": {"fullName": "Osman Carbajal", "givenName": "Osman", "familyName": "Carbajal"}}, {"organizations": [{"department": "SS TOOL INSTALL", "customType": "work", "primary": true, "name": "AM Technical Solutions", "title": "Contractor"}], "primaryEmail": "paul.flanagan@globalfoundries.com", "addresses": [{"locality": "Malta", "country": "United States", "region": "New York", "formatted": "Malta New York NY 12020 United States", "primary": true, "postalCode": "NY 12020", "type": "work"}], "relations": [{"type": "manager", "value": "Darren.Thomas@globalfoundries.com"}], "emails": [{"type": "custom", "primary": true, "address": "paul.flanagan@globalfoundries.com"}], "name": {"fullName": "Paul Flanagan", "givenName": "Paul", "familyName": "Flanagan"}}, {"organizations": [{"name": "AM Technical Solutions", "title": "Contractor", "customType": "work", "primary": true, "location": "J10370", "department": "SS TOOL INSTALL"}], "primaryEmail": "paul.kellogg@globalfoundries.com", "addresses": [{"locality": "Malta", "country": "United States", "region": "New York", "formatted": "Malta New York NY 12020 United States", "primary": true, "postalCode": "NY 12020", "type": "work"}], "phones": [{"type": "work", "value": "69628"}, {"type": "home", "value": "+15183059628"}], "relations": [{"type": "manager", "value": "Darren.Thomas@globalfoundries.com"}], "emails": [{"type": "custom", "primary": true, "address": "paul.kellogg@globalfoundries.com"}], "name": {"fullName": "Paul Kellogg", "givenName": "Paul", "familyName": "Kellogg"}}, {"organizations": [{"name": "AM Technical Solutions", "title": "Contractor", "customType": "work", "primary": true, "location": "M115", "department": "SS TOOL INSTALL"}], "primaryEmail": "paul.stuart@globalfoundries.com", "addresses": [{"locality": "Malta", "country": "United States", "region": "New York", "formatted": "Bldg: Malta Malta New York NY 12020 United States", "primary": true, "streetAddress": "Bldg: Malta", "postalCode": "NY 12020", "type": "work"}], "phones": [{"type": "work", "value": "61765"}, {"type": "home", "value": "+15183051765"}], "thumbnailPhotoUrl": "https://plus.google.com/_/focus/photos/private/AIbEiAIAAABDCMTkm6KXwqX_biILdmNhcmRfcGhvdG8qKGQwYzViOGVlY2YwYTVjZTliY2Q2NThmNGJkMjI5MjQyNzU1MGQyN2YwAauLpnXo8rZMjCTyOZmh3ICPWOIa", "relations": [{"type": "manager", "value": "Darren.Thomas@globalfoundries.com"}], "emails": [{"type": "custom", "primary": true, "address": "paul.stuart@globalfoundries.com"}], "name": {"fullName": "Paul Stuart", "givenName": "Paul", "familyName": "Stuart"}}, {"organizations": [{"name": "AM Technical Solutions", "title": "Contractor", "customType": "work", "primary": true, "location": "J10356", "department": "SS TOOL INSTALL"}], "primaryEmail": "peter.kim@globalfoundries.com", "addresses": [{"locality": "Malta", "country": "United States", "region": "New York", "formatted": "Malta New York NY 12020 United States", "primary": true, "postalCode": "NY 12020", "type": "work"}], "phones": [{"type": "work", "value": "61248"}, {"type": "home", "value": "+15183051248"}], "thumbnailPhotoUrl": "https://plus.google.com/_/focus/photos/private/AIbEiAIAAABECIKH3rm8ufq7ywEiC3ZjYXJkX3Bob3RvKihmNWM4M2VkYTVlZjM3MGNjNGYzM2M2YzljYTk3MDZlMjAwNDQwN2M3MAFjzeNGRR2pANECW6Qa5TE6JYHFNA", "relations": [{"type": "manager", "value": "Darren.Thomas@globalfoundries.com"}], "emails": [{"type": "custom", "primary": true, "address": "peter.kim@globalfoundries.com"}], "name": {"fullName": "Peter Kim", "givenName": "Peter", "familyName": "Kim"}}, {"organizations": [{"name": "AM Technical Solutions", "title": "Contractor", "customType": "work", "primary": true, "location": "M111", "department": "SS TOOL INSTALL"}], "primaryEmail": "peter.lagomarsino@globalfoundries.com", "addresses": [{"locality": "Malta", "country": "United States", "region": "New York", "formatted": "Malta New York NY 12020 United States", "primary": true, "postalCode": "NY 12020", "type": "work"}], "phones": [{"type": "work", "value": "61861"}, {"type": "home", "value": "+15183051861"}], "thumbnailPhotoUrl": "https://plus.google.com/_/focus/photos/private/AIbEiAIAAABDCJ7JzuGOla6vDiILdmNhcmRfcGhvdG8qKDQzMmI0OGI4MGE1NTgzNzgxZjEzZGJkOWI3MTM4YmNlNTk0MDE4NDcwAVoRsJBjYXja0beEJIuDrj7gecH5", "relations": [{"type": "manager", "value": "Darren.Thomas@globalfoundries.com"}], "emails": [{"type": "custom", "primary": true, "address": "peter.lagomarsino@globalfoundries.com"}], "name": {"fullName": "Peter Lagomarsino", "givenName": "Peter", "familyName": "Lagomarsino"}}, {"organizations": [{"name": "AM Technical Solutions", "title": "Contractor", "customType": "work", "primary": true, "location": "M121", "department": "SS TOOL INSTALL"}], "primaryEmail": "peter.rock@globalfoundries.com", "addresses": [{"locality": "Malta", "country": "United States", "region": "New York", "formatted": "Bldg: Malta Malta New York NY 12020 United States", "primary": true, "streetAddress": "Bldg: Malta", "postalCode": "NY 12020", "type": "work"}], "phones": [{"type": "work", "value": "67879"}, {"type": "home", "value": "+15183057879"}], "thumbnailPhotoUrl": "https://plus.google.com/_/focus/photos/public/AIbEiAIAAABECOj4o9TvzLL0gAEiC3ZjYXJkX3Bob3RvKihhNGQ1MWJjZmM0MGVjMWFiYzA0ZjJlMzRiZGNlZWI4MzllYmI1MzdjMAFtFLY0mFEmGWIM1XtN27GbufOxGQ", "relations": [{"type": "manager", "value": "Darren.Thomas@globalfoundries.com"}], "emails": [{"type": "custom", "primary": true, "address": "peter.rock@globalfoundries.com"}], "name": {"fullName": "Peter Rock", "givenName": "Peter", "familyName": "Rock"}}, {"organizations": [{"department": "SS TOOL INSTALL", "customType": "work", "primary": true, "name": "AM Technical Solutions", "title": "Contractor"}], "primaryEmail": "philip.schumacher@globalfoundries.com", "addresses": [{"locality": "Malta", "country": "United States", "region": "New York", "formatted": "Malta New York NY 12020 United States", "primary": true, "postalCode": "NY 12020", "type": "work"}], "relations": [{"type": "manager", "value": "Darren.Thomas@globalfoundries.com"}], "emails": [{"type": "custom", "primary": true, "address": "philip.schumacher@globalfoundries.com"}], "name": {"fullName": "Philip Schumacher", "givenName": "Philip", "familyName": "Schumacher"}}, {"organizations": [{"department": "SS TOOL INSTALL", "customType": "work", "primary": true, "name": "AM Technical Solutions", "title": "Contractor"}], "primaryEmail": "phillip.elmer@globalfoundries.com", "addresses": [{"locality": "Malta", "country": "United States", "region": "New York", "formatted": "Malta New York NY 12020 United States", "primary": true, "postalCode": "NY 12020", "type": "work"}], "relations": [{"type": "manager", "value": "Darren.Thomas@globalfoundries.com"}], "emails": [{"type": "custom", "primary": true, "address": "phillip.elmer@globalfoundries.com"}], "name": {"fullName": "Phillip Elmer", "givenName": "Phillip", "familyName": "Elmer"}}, {"organizations": [{"name": "AM Technical Solutions", "title": "Contractor", "customType": "work", "primary": true, "location": "J10422", "department": "SS TOOL INSTALL"}], "primaryEmail": "randy.reyes@globalfoundries.com", "addresses": [{"locality": "Malta", "country": "United States", "region": "New York", "formatted": "Malta New York NY 12020 United States", "primary": true, "postalCode": "NY 12020", "type": "work"}], "phones": [{"type": "work", "value": "69248"}, {"type": "home", "value": "+15183059248"}], "relations": [{"type": "manager", "value": "Darren.Thomas@globalfoundries.com"}], "emails": [{"type": "custom", "primary": true, "address": "randy.reyes@globalfoundries.com"}], "name": {"fullName": "Randy Reyes", "givenName": "Randy", "familyName": "Reyes"}}, {"organizations": [{"department": "SS TOOL INSTALL", "customType": "work", "primary": true, "name": "FST Technical Services", "title": "Contractor"}], "primaryEmail": "raul.flores@globalfoundries.com", "addresses": [{"locality": "Malta", "country": "United States", "region": "New York", "formatted": "Malta New York NY 12020 United States", "primary": true, "postalCode": "NY 12020", "type": "work"}], "relations": [{"type": "manager", "value": "Darren.Thomas@globalfoundries.com"}], "emails": [{"type": "custom", "primary": true, "address": "raul.flores@globalfoundries.com"}], "name": {"fullName": "Raul Flores", "givenName": "Raul", "familyName": "Flores"}}, {"organizations": [{"name": "AM Technical Solutions", "title": "Contractor", "customType": "work", "primary": true, "location": "J10352", "department": "SS TOOL INSTALL"}], "primaryEmail": "raymond.ware@globalfoundries.com", "addresses": [{"locality": "Malta", "country": "United States", "region": "New York", "formatted": "Malta New York NY 12020 United States", "primary": true, "postalCode": "NY 12020", "type": "work"}], "phones": [{"type": "work", "value": "61030"}, {"type": "home", "value": "+15183051030"}], "relations": [{"type": "manager", "value": "Darren.Thomas@globalfoundries.com"}], "emails": [{"type": "custom", "primary": true, "address": "raymond.ware@globalfoundries.com"}], "name": {"fullName": "Raymond Ware", "givenName": "Raymond", "familyName": "Ware"}}, {"organizations": [{"department": "SS TOOL INSTALL", "customType": "work", "primary": true, "name": "FST Technical Services", "title": "Contractor"}], "primaryEmail": "reynaldo.villa@globalfoundries.com", "addresses": [{"locality": "Malta", "country": "United States", "region": "New York", "formatted": "Malta New York NY 12020 United States", "primary": true, "postalCode": "NY 12020", "type": "work"}], "thumbnailPhotoUrl": "https://plus.google.com/_/focus/photos/public/AIbEiAIAAABECJGf44fxudGT6wEiC3ZjYXJkX3Bob3RvKig4NGFkZDdjZWU2ODg0YzgzYzQwYjI4YmE5ZTFhM2JmZTI5NWM1ZjdmMAESTnZI_qnWV6t1WYBOMrD2FmBFVw", "relations": [{"type": "manager", "value": "Darren.Thomas@globalfoundries.com"}], "emails": [{"type": "custom", "primary": true, "address": "reynaldo.villa@globalfoundries.com"}], "name": {"fullName": "Reynaldo Villa", "givenName": "Reynaldo", "familyName": "Villa"}}, {"organizations": [{"name": "FST Technical Services", "title": "Contractor", "customType": "work", "primary": true, "location": "J10452", "department": "SS TOOL INSTALL"}], "primaryEmail": "richard.meyer@globalfoundries.com", "addresses": [{"locality": "Malta", "country": "United States", "region": "New York", "formatted": "Malta New York NY 12020 United States", "primary": true, "postalCode": "NY 12020", "type": "work"}], "phones": [{"type": "work", "value": "66538"}, {"type": "home", "value": "+15183056538"}], "thumbnailPhotoUrl": "https://plus.google.com/_/focus/photos/private/AIbEiAIAAABECL6vhILA06_RnAEiC3ZjYXJkX3Bob3RvKihiNjA3YmE2MGEzNjQzZDUxNGQ1NWMzMTNiMzIwMTg0ZDZmNTJjMWRiMAEg4_RtssVL1ACrIJIyoTuegBU5cA", "relations": [{"type": "manager", "value": "Darren.Thomas@globalfoundries.com"}], "emails": [{"type": "custom", "primary": true, "address": "richard.meyer@globalfoundries.com"}], "name": {"fullName": "Richard Meyer", "givenName": "Richard", "familyName": "Meyer"}}, {"organizations": [{"department": "SS TOOL INSTALL", "customType": "work", "primary": true, "name": "AM Technical Solutions", "title": "Contractor"}], "primaryEmail": "richard.pratt@globalfoundries.com", "addresses": [{"locality": "Malta", "country": "United States", "region": "New York", "formatted": "Bldg: Malta Malta New York NY 12020 United States", "primary": true, "streetAddress": "Bldg: Malta", "postalCode": "NY 12020", "type": "work"}], "thumbnailPhotoUrl": "https://plus.google.com/_/focus/photos/private/AIbEiAIAAABDCMjbi9fkppy1WiILdmNhcmRfcGhvdG8qKDRjZWJjOGU3ODIzYjZiNGFhYmNhODU0ODI3ZTFkMTkwM2Y3YmM4MTcwARvC5_TapyGR9XSdBR5p2jE6kviF", "relations": [{"type": "manager", "value": "Darren.Thomas@globalfoundries.com"}], "emails": [{"type": "custom", "primary": true, "address": "richard.pratt@globalfoundries.com"}], "name": {"fullName": "Richard Pratt", "givenName": "Richard", "familyName": "Pratt"}}, {"organizations": [{"name": "AM Technical Solutions", "title": "Contractor", "customType": "work", "primary": true, "location": "J10391", "department": "SS TOOL INSTALL"}], "primaryEmail": "richard.toms@globalfoundries.com", "addresses": [{"locality": "Malta", "country": "United States", "region": "New York", "formatted": "Malta New York NY 12020 United States", "primary": true, "postalCode": "NY 12020", "type": "work"}], "phones": [{"type": "work", "value": "67697"}, {"type": "home", "value": "+15183057697"}], "thumbnailPhotoUrl": "https://plus.google.com/_/focus/photos/private/AIbEiAIAAABECO-Lvvvp4J7YpgEiC3ZjYXJkX3Bob3RvKig4NTRjYjI4YTQ4Y2VkNDZlMDVhNjM1MmNjYzRkZjQ3ZGZjNWVjNTE0MAF3zu9T8G5OkRhvWWtEIU2OT7yDLA", "relations": [{"type": "manager", "value": "Darren.Thomas@globalfoundries.com"}], "emails": [{"type": "custom", "primary": true, "address": "richard.toms@globalfoundries.com"}], "name": {"fullName": "Richard Toms", "givenName": "Richard", "familyName": "Toms"}}, {"organizations": [{"name": "AM Technical Solutions", "title": "Contractor", "customType": "work", "primary": true, "location": "J10472T", "department": "SS TOOL INSTALL"}], "primaryEmail": "robert.franckowiak@globalfoundries.com", "addresses": [{"locality": "Malta", "country": "United States", "region": "New York", "formatted": "Malta New York NY 12020 United States", "primary": true, "postalCode": "NY 12020", "type": "work"}], "phones": [{"type": "work", "value": "69768"}, {"type": "home", "value": "+15183059768"}], "relations": [{"type": "manager", "value": "Darren.Thomas@globalfoundries.com"}], "emails": [{"type": "custom", "primary": true, "address": "robert.franckowiak@globalfoundries.com"}], "name": {"fullName": "Robert Franckowiak", "givenName": "Robert", "familyName": "Franckowiak"}}, {"organizations": [{"name": "AM Technical Solutions", "title": "Contractor", "customType": "work", "primary": true, "location": "M109", "department": "SS TOOL INSTALL"}], "primaryEmail": "robert.nytes@globalfoundries.com", "addresses": [{"locality": "Malta", "country": "United States", "region": "New York", "formatted": "Malta New York NY 12020 United States", "primary": true, "postalCode": "NY 12020", "type": "work"}], "phones": [{"type": "work", "value": "68847"}, {"type": "home", "value": "+15183058847"}], "relations": [{"type": "manager", "value": "Darren.Thomas@globalfoundries.com"}], "emails": [{"type": "custom", "primary": true, "address": "robert.nytes@globalfoundries.com"}], "name": {"fullName": "Robert Nytes", "givenName": "Robert", "familyName": "Nytes"}}, {"organizations": [{"name": "AM Technical Solutions", "title": "Contractor", "customType": "work", "primary": true, "location": "J10480T", "department": "SS TOOL INSTALL"}], "primaryEmail": "rodney.brown@globalfoundries.com", "addresses": [{"locality": "Malta", "country": "United States", "region": "New York", "formatted": "Malta New York NY 12020 United States", "primary": true, "postalCode": "NY 12020", "type": "work"}], "phones": [{"type": "work", "value": "61746"}, {"type": "home", "value": "+15183051746"}], "relations": [{"type": "manager", "value": "Darren.Thomas@globalfoundries.com"}], "emails": [{"type": "custom", "primary": true, "address": "rodney.brown@globalfoundries.com"}], "name": {"fullName": "Rodney Brown", "givenName": "Rodney", "familyName": "Brown"}}, {"organizations": [{"name": "AM Technical Solutions", "title": "Contractor", "customType": "work", "primary": true, "location": "J10377", "department": "SS TOOL INSTALL"}], "primaryEmail": "rodolfo.rodriguez@globalfoundries.com", "addresses": [{"locality": "Malta", "country": "United States", "region": "New York", "formatted": "Malta New York NY 12020 United States", "primary": true, "postalCode": "NY 12020", "type": "work"}], "phones": [{"type": "work", "value": "69277"}, {"type": "home", "value": "+15183059277"}], "thumbnailPhotoUrl": "https://plus.google.com/_/focus/photos/private/AIbEiAIAAABECKmwo72Lr_b70wEiC3ZjYXJkX3Bob3RvKihlZTQzMzAyZDdmNWRmZGMzYjZmYzFhYWZmZTg1ODAyMWI4YmE1YzkxMAFViIZeQroBKRK9RLJM2SiZwXvLAA", "relations": [{"type": "manager", "value": "Darren.Thomas@globalfoundries.com"}], "emails": [{"type": "custom", "primary": true, "address": "rodolfo.rodriguez@globalfoundries.com"}], "name": {"fullName": "Rodolfo Rodriguez", "givenName": "Rodolfo", "familyName": "Rodriguez"}}, {"organizations": [{"name": "AM Technical Solutions", "title": "Contractor", "customType": "work", "primary": true, "location": "M018", "department": "SS TOOL INSTALL"}], "primaryEmail": "ronald.flavell@globalfoundries.com", "addresses": [{"locality": "Malta", "country": "United States", "region": "New York", "formatted": "Malta New York NY 12020 United States", "primary": true, "postalCode": "NY 12020", "type": "work"}], "phones": [{"type": "work", "value": "61756"}, {"type": "home", "value": "+15183051756"}], "thumbnailPhotoUrl": "https://plus.google.com/_/focus/photos/private/AIbEiAIAAABECOXCqtv838_qrQEiC3ZjYXJkX3Bob3RvKig1NzVmNTUwNTExNGFmMjE0YWJiZTdkNGVjNTQxOTBmMDZlZWQwYmEwMAH9LBVUVzwCngZfq9VnV0h0DFqE6g", "relations": [{"type": "manager", "value": "Darren.Thomas@globalfoundries.com"}], "emails": [{"primary": true, "address": "ronald.flavell@globalfoundries.com"}], "name": {"fullName": "Ronald Flavell", "givenName": "Ronald", "familyName": "Flavell"}}, {"organizations": [{"name": "AM Technical Solutions", "title": "Contractor", "customType": "work", "primary": true, "location": "J10470T", "department": "SS TOOL INSTALL"}], "primaryEmail": "rudy.ramirez@globalfoundries.com", "addresses": [{"locality": "Malta", "country": "United States", "region": "New York", "formatted": "Malta New York NY 12020 United States", "primary": true, "postalCode": "NY 12020", "type": "work"}], "phones": [{"type": "work", "value": "66624"}, {"type": "home", "value": "+15183056624"}], "thumbnailPhotoUrl": "https://plus.google.com/_/focus/photos/public/AIbEiAIAAABECKv0lK7D6deIpgEiC3ZjYXJkX3Bob3RvKihmNzE5YzJiNWI4MWQzMTZjYmE0MTcxMDMxZmUzY2ZkMzJjMmFiZDlkMAGGttT3WEkmi5ToYBRBrpCOv96G0w", "relations": [{"type": "manager", "value": "Darren.Thomas@globalfoundries.com"}], "emails": [{"type": "custom", "primary": true, "address": "rudy.ramirez@globalfoundries.com"}], "name": {"fullName": "Rudy Ramirez", "givenName": "Rudy", "familyName": "Ramirez"}}, {"organizations": [{"name": "AM Technical Solutions", "title": "Contractor", "customType": "work", "primary": true, "location": "J10368", "department": "SS TOOL INSTALL"}], "primaryEmail": "russell.vine@globalfoundries.com", "addresses": [{"locality": "Malta", "country": "United States", "region": "New York", "formatted": "Malta New York NY 12020 United States", "primary": true, "postalCode": "NY 12020", "type": "work"}], "phones": [{"type": "work", "value": "61422"}, {"type": "home", "value": "+15183051422"}], "relations": [{"type": "manager", "value": "Darren.Thomas@globalfoundries.com"}], "emails": [{"type": "custom", "primary": true, "address": "russell.vine@globalfoundries.com"}], "name": {"fullName": "Russell Vine", "givenName": "Russell", "familyName": "Vine"}}, {"organizations": [{"name": "AM Technical Solutions", "title": "Contractor", "customType": "work", "primary": true, "location": "M004", "department": "SS TOOL INSTALL"}], "primaryEmail": "ryan.finch@globalfoundries.com", "addresses": [{"locality": "Malta", "country": "United States", "region": "New York", "formatted": "Malta New York NY 12020 United States", "primary": true, "postalCode": "NY 12020", "type": "work"}], "phones": [{"type": "work", "value": "61415"}, {"type": "home", "value": "+15183051415"}], "thumbnailPhotoUrl": "https://plus.google.com/_/focus/photos/public/AIbEiAIAAABECJfby_Dk_fatsQEiC3ZjYXJkX3Bob3RvKigyMjhiNjllZjI4MmZkOGM0ZTZjNTAyYzI4YTBlMzc1OGM3NDJkYWFkMAFzEsrzi1GprwIjTaGlUhpfmg2jKA", "relations": [{"type": "manager", "value": "Darren.Thomas@globalfoundries.com"}], "emails": [{"type": "custom", "primary": true, "address": "ryan.finch@globalfoundries.com"}], "name": {"fullName": "Ryan Finch", "givenName": "Ryan", "familyName": "Finch"}}, {"organizations": [{"name": "AM Technical Solutions", "title": "Contractor", "customType": "work", "primary": true, "location": "M001", "department": "SS TOOL INSTALL"}], "primaryEmail": "ryan.labrecque@globalfoundries.com", "addresses": [{"locality": "Malta", "country": "United States", "region": "New York", "formatted": "Malta New York NY 12020 United States", "primary": true, "postalCode": "NY 12020", "type": "work"}], "phones": [{"type": "work", "value": "67822"}, {"type": "home", "value": "+15183057822"}], "thumbnailPhotoUrl": "https://plus.google.com/_/focus/photos/private/AIbEiAIAAABDCO2wp7Lwj5S8CyILdmNhcmRfcGhvdG8qKDE2MWY2NDA0NThjYzk5NDllMzc4OTM3YWY5NWRhZDU0NTdjMGNlYmEwAfElYEuSVnC62GqpRGjOsTyYqpsx", "relations": [{"type": "manager", "value": "Darren.Thomas@globalfoundries.com"}], "emails": [{"type": "custom", "primary": true, "address": "ryan.labrecque@globalfoundries.com"}], "name": {"fullName": "Ryan Labrecque", "givenName": "Ryan", "familyName": "Labrecque"}}, {"organizations": [{"name": "FST Technical Services", "title": "Contractor", "customType": "work", "primary": true, "location": "J10439", "department": "SS TOOL INSTALL"}], "primaryEmail": "ryanmichael.rush@globalfoundries.com", "addresses": [{"locality": "Malta", "country": "United States", "region": "New York", "formatted": "Bldg: Malta Malta New York NY 12020 United States", "primary": true, "streetAddress": "Bldg: Malta", "postalCode": "NY 12020", "type": "work"}], "phones": [{"type": "work", "value": "69791"}, {"type": "home", "value": "+15183059791"}], "relations": [{"type": "manager", "value": "Darren.Thomas@globalfoundries.com"}], "emails": [{"type": "custom", "primary": true, "address": "ryanmichael.rush@globalfoundries.com"}], "name": {"fullName": "Ryan Michael Rush", "givenName": "Ryan Michael", "familyName": "Rush"}}, {"organizations": [{"name": "FST Technical Services", "title": "Contractor", "customType": "work", "primary": true, "location": "J10429", "department": "SS TOOL INSTALL"}], "primaryEmail": "sabrina.white@globalfoundries.com", "addresses": [{"locality": "Malta", "country": "United States", "region": "New York", "formatted": "Bldg: Malta Malta New York NY 12020 United States", "primary": true, "streetAddress": "Bldg: Malta", "postalCode": "NY 12020", "type": "work"}], "phones": [{"type": "work", "value": "61998"}, {"type": "home", "value": "+15183051998"}], "relations": [{"type": "manager", "value": "Darren.Thomas@globalfoundries.com"}], "emails": [{"type": "custom", "primary": true, "address": "sabrina.white@globalfoundries.com"}], "name": {"fullName": "Sabrina White", "givenName": "Sabrina", "familyName": "White"}}, {"organizations": [{"name": "AM Technical Solutions", "title": "Contractor", "customType": "work", "primary": true, "location": "J10371", "department": "SS TOOL INSTALL"}], "primaryEmail": "sean.king@globalfoundries.com", "addresses": [{"locality": "Malta", "country": "United States", "region": "New York", "formatted": "Malta New York NY 12020 United States", "primary": true, "postalCode": "NY 12020", "type": "work"}], "phones": [{"type": "work", "value": "69374"}, {"type": "home", "value": "+15183059374"}], "thumbnailPhotoUrl": "https://plus.google.com/_/focus/photos/private/AIbEiAIAAABECLHD87zu6Mn0zQEiC3ZjYXJkX3Bob3RvKig0NzFhNWFlYTJjYjBkNzI3NzM0NjYwNjgzMDNmZDBmNDc1YzhkNjdmMAHd5oNJoFAzBYRjj1MEzv_nNXHVqg", "relations": [{"type": "manager", "value": "Darren.Thomas@globalfoundries.com"}], "emails": [{"type": "custom", "primary": true, "address": "sean.king@globalfoundries.com"}], "name": {"fullName": "Sean King", "givenName": "Sean", "familyName": "King"}}, {"organizations": [{"department": "SS TOOL INSTALL", "customType": "work", "primary": true, "name": "AM Technical Solutions", "title": "Contractor"}], "primaryEmail": "shane.reddin@globalfoundries.com", "addresses": [{"locality": "Malta", "country": "United States", "region": "New York", "formatted": "Malta New York NY 12020 United States", "primary": true, "postalCode": "NY 12020", "type": "work"}], "relations": [{"type": "manager", "value": "Darren.Thomas@globalfoundries.com"}], "emails": [{"type": "custom", "primary": true, "address": "shane.reddin@globalfoundries.com"}], "name": {"fullName": "Shane Reddin", "givenName": "Shane", "familyName": "Reddin"}}, {"organizations": [{"department": "SS TOOL INSTALL", "customType": "work", "primary": true, "name": "AM Technical Solutions", "title": "Contractor"}], "primaryEmail": "sheldon.nebeker@globalfoundries.com", "addresses": [{"locality": "Malta", "country": "United States", "region": "New York", "formatted": "Malta New York NY 12020 United States", "primary": true, "postalCode": "NY 12020", "type": "work"}], "relations": [{"type": "manager", "value": "Darren.Thomas@globalfoundries.com"}], "emails": [{"type": "custom", "primary": true, "address": "sheldon.nebeker@globalfoundries.com"}], "name": {"fullName": "Sheldon Nebeker", "givenName": "Sheldon", "familyName": "Nebeker"}}, {"organizations": [{"name": "FST Technical Services", "title": "Contractor", "customType": "work", "primary": true, "location": "J10438", "department": "SS TOOL INSTALL"}], "primaryEmail": "sherry.winfield@globalfoundries.com", "addresses": [{"locality": "Malta", "country": "United States", "region": "New York", "formatted": "Malta New York NY 12020 United States", "primary": true, "postalCode": "NY 12020", "type": "work"}], "phones": [{"type": "work", "value": "61105"}, {"type": "home", "value": "+15183051105"}], "relations": [{"type": "manager", "value": "Darren.Thomas@globalfoundries.com"}], "emails": [{"type": "custom", "primary": true, "address": "sherry.winfield@globalfoundries.com"}], "name": {"fullName": "Sherry Winfield", "givenName": "Sherry", "familyName": "Winfield"}}, {"organizations": [{"name": "AM Technical Solutions", "title": "Contractor", "customType": "work", "primary": true, "location": "M020", "department": "SS TOOL INSTALL"}], "primaryEmail": "sonya.fowler@globalfoundries.com", "addresses": [{"locality": "Malta", "country": "United States", "region": "New York", "formatted": "Malta New York NY 12020 United States", "primary": true, "postalCode": "NY 12020", "type": "work"}], "phones": [{"type": "work", "value": "67811"}, {"type": "home", "value": "+15183057811"}], "relations": [{"type": "manager", "value": "Darren.Thomas@globalfoundries.com"}], "emails": [{"type": "custom", "primary": true, "address": "sonya.fowler@globalfoundries.com"}], "name": {"fullName": "Sonya Fowler", "givenName": "Sonya", "familyName": "Fowler"}}, {"organizations": [{"department": "SS TOOL INSTALL", "customType": "work", "primary": true, "name": "AM Technical Solutions", "title": "Contractor"}], "primaryEmail": "stephen.booth@globalfoundries.com", "addresses": [{"locality": "Malta", "country": "United States", "region": "New York", "formatted": "Bldg: Malta Malta New York NY 12020 United States", "primary": true, "streetAddress": "Bldg: Malta", "postalCode": "NY 12020", "type": "work"}], "thumbnailPhotoUrl": "https://plus.google.com/_/focus/photos/public/AIbEiAIAAABDCK34_5aAk-6rNyILdmNhcmRfcGhvdG8qKDZjMDlkY2M3N2Q4NmQ0N2NjMTk0YzE0NjQ3NmM2NzViODZhNDYwZDQwARWRY2T77KhIyMDajLo4MmiPixac", "relations": [{"type": "manager", "value": "Darren.Thomas@globalfoundries.com"}], "emails": [{"type": "custom", "primary": true, "address": "stephen.booth@globalfoundries.com"}], "name": {"fullName": "Stephen Booth", "givenName": "Stephen", "familyName": "Booth"}}, {"organizations": [{"department": "SS TOOL INSTALL", "customType": "work", "primary": true, "name": "AM Technical Solutions", "title": "Contractor"}], "primaryEmail": "stephen.cushing@globalfoundries.com", "addresses": [{"locality": "Malta", "country": "United States", "region": "New York", "formatted": "Malta New York NY 12020 United States", "primary": true, "postalCode": "NY 12020", "type": "work"}], "relations": [{"type": "manager", "value": "Darren.Thomas@globalfoundries.com"}], "emails": [{"type": "custom", "primary": true, "address": "stephen.cushing@globalfoundries.com"}], "name": {"fullName": "Stephen Cushing", "givenName": "Stephen", "familyName": "Cushing"}}, {"organizations": [{"department": "SS TOOL INSTALL", "customType": "work", "primary": true, "name": "AM Technical Solutions", "title": "Contractor"}], "primaryEmail": "stephenalan.morrow@globalfoundries.com", "addresses": [{"locality": "Malta", "country": "United States", "region": "New York", "formatted": "Bldg: Malta Malta New York NY 12020 United States", "primary": true, "streetAddress": "Bldg: Malta", "postalCode": "NY 12020", "type": "work"}], "relations": [{"type": "manager", "value": "Darren.Thomas@globalfoundries.com"}], "emails": [{"type": "custom", "primary": true, "address": "stephenalan.morrow@globalfoundries.com"}], "name": {"fullName": "Stephen Alan Morrow", "givenName": "Stephen Alan", "familyName": "Morrow"}}, {"organizations": [{"department": "SS TOOL INSTALL", "customType": "work", "primary": true, "name": "AM Technical Solutions", "title": "Contractor"}], "primaryEmail": "steven.amondson@globalfoundries.com", "addresses": [{"locality": "Malta", "country": "United States", "region": "New York", "formatted": "Malta New York NY 12020 United States", "primary": true, "postalCode": "NY 12020", "type": "work"}], "relations": [{"type": "manager", "value": "Darren.Thomas@globalfoundries.com"}], "emails": [{"type": "custom", "primary": true, "address": "steven.amondson@globalfoundries.com"}], "name": {"fullName": "Steven Amondson", "givenName": "Steven", "familyName": "Amondson"}}, {"organizations": [{"name": "AM Technical Solutions", "title": "Contractor", "customType": "work", "primary": true, "location": "J10482T", "department": "SS TOOL INSTALL"}], "primaryEmail": "steven.bartholomew@globalfoundries.com", "addresses": [{"locality": "Malta", "country": "United States", "region": "New York", "formatted": "Malta New York NY 12020 United States", "primary": true, "postalCode": "NY 12020", "type": "work"}], "phones": [{"type": "work", "value": "61774"}, {"type": "home", "value": "+15183051774"}], "relations": [{"type": "manager", "value": "Darren.Thomas@globalfoundries.com"}], "emails": [{"type": "custom", "primary": true, "address": "steven.bartholomew@globalfoundries.com"}], "name": {"fullName": "Steven Bartholomew", "givenName": "Steven", "familyName": "Bartholomew"}}, {"organizations": [{"name": "AM Technical Solutions", "title": "Contractor", "customType": "work", "primary": true, "location": "J10398", "department": "SS TOOL INSTALL"}], "primaryEmail": "steven.casper@globalfoundries.com", "addresses": [{"locality": "Malta", "country": "United States", "region": "New York", "formatted": "Malta New York NY 12020 United States", "primary": true, "postalCode": "NY 12020", "type": "work"}], "phones": [{"type": "work", "value": "61564"}, {"type": "home", "value": "+15183051564"}], "relations": [{"type": "manager", "value": "Darren.Thomas@globalfoundries.com"}], "emails": [{"type": "custom", "primary": true, "address": "steven.casper@globalfoundries.com"}], "name": {"fullName": "Steven Casper", "givenName": "Steven", "familyName": "Casper"}}, {"organizations": [{"department": "SS TOOL INSTALL", "customType": "work", "primary": true, "name": "AM Technical Solutions", "title": "Contractor"}], "primaryEmail": "steven.laughlin@globalfoundries.com", "addresses": [{"locality": "Malta", "country": "United States", "region": "New York", "formatted": "Malta New York NY 12020 United States", "primary": true, "postalCode": "NY 12020", "type": "work"}], "relations": [{"type": "manager", "value": "Darren.Thomas@globalfoundries.com"}], "emails": [{"type": "custom", "primary": true, "address": "steven.laughlin@globalfoundries.com"}], "name": {"fullName": "Steven Laughlin", "givenName": "Steven", "familyName": "Laughlin"}}, {"organizations": [{"name": "AM Technical Solutions", "title": "Contractor", "customType": "work", "primary": true, "location": "J10464T", "department": "SS TOOL INSTALL"}], "primaryEmail": "steven.rice@globalfoundries.com", "addresses": [{"locality": "Malta", "country": "United States", "region": "New York", "formatted": "Malta New York NY 12020 United States", "primary": true, "postalCode": "NY 12020", "type": "work"}], "phones": [{"type": "work", "value": "61031"}, {"type": "home", "value": "+15183051031"}], "relations": [{"type": "manager", "value": "Darren.Thomas@globalfoundries.com"}], "emails": [{"type": "custom", "primary": true, "address": "steven.rice@globalfoundries.com"}], "name": {"fullName": "Steven Rice", "givenName": "Steven", "familyName": "Rice"}}, {"organizations": [{"name": "AM Technical Solutions", "title": "Contractor", "customType": "work", "primary": true, "location": "J10462", "department": "SS TOOL INSTALL"}], "primaryEmail": "stevenson.sommer@globalfoundries.com", "addresses": [{"locality": "Malta", "country": "United States", "region": "New York", "formatted": "Bldg: Malta Malta New York NY 12020 United States", "primary": true, "streetAddress": "Bldg: Malta", "postalCode": "NY 12020", "type": "work"}], "phones": [{"type": "work", "value": "66005"}, {"type": "home", "value": "+15183056005"}], "relations": [{"type": "manager", "value": "Darren.Thomas@globalfoundries.com"}], "emails": [{"type": "custom", "primary": true, "address": "stevenson.sommer@globalfoundries.com"}], "name": {"fullName": "Stevenson Sommer", "givenName": "Stevenson", "familyName": "Sommer"}}, {"organizations": [{"name": "AM Technical Solutions", "title": "Contractor", "customType": "work", "primary": true, "location": "J10363", "department": "SS TOOL INSTALL"}], "primaryEmail": "susan.allain@globalfoundries.com", "addresses": [{"locality": "Malta", "country": "United States", "region": "New York", "formatted": "Bldg: Malta Malta New York NY 12020 United States", "primary": true, "streetAddress": "Bldg: Malta", "postalCode": "NY 12020", "type": "work"}], "phones": [{"type": "work", "value": "67877"}, {"type": "home", "value": "+15183057877"}], "relations": [{"type": "manager", "value": "Darren.Thomas@globalfoundries.com"}], "emails": [{"type": "custom", "primary": true, "address": "susan.allain@globalfoundries.com"}], "name": {"fullName": "Susan Allain", "givenName": "Susan", "familyName": "Allain"}}, {"organizations": [{"name": "AM Technical Solutions", "title": "Contractor", "customType": "work", "primary": true, "location": "J10391", "department": "SS TOOL INSTALL"}], "primaryEmail": "terry.johnson@globalfoundries.com", "addresses": [{"locality": "Malta", "country": "United States", "region": "New York", "formatted": "Malta New York NY 12020 United States", "primary": true, "postalCode": "NY 12020", "type": "work"}], "phones": [{"type": "work", "value": "69334"}, {"type": "home", "value": "+15183059334"}], "thumbnailPhotoUrl": "https://plus.google.com/_/focus/photos/private/AIbEiAIAAABDCNPGmN2g1f-_EyILdmNhcmRfcGhvdG8qKGRmZDk5NGY0NDllODk1YjMyMTU3ZmVjNzE5Nzk4NmY1YmE0MmM3OTgwAfAKNCNlgjGJktT9KUP6Ydc5Z1JA", "relations": [{"type": "manager", "value": "Darren.Thomas@globalfoundries.com"}], "emails": [{"type": "custom", "primary": true, "address": "terry.johnson@globalfoundries.com"}], "name": {"fullName": "Terry Johnson", "givenName": "Terry", "familyName": "Johnson"}}, {"organizations": [{"department": "SS TOOL INSTALL", "customType": "work", "primary": true, "name": "AM Technical Solutions", "title": "Contractor"}], "primaryEmail": "thomas.polen@globalfoundries.com", "addresses": [{"locality": "Malta", "country": "United States", "region": "New York", "formatted": "Malta New York NY 12020 United States", "primary": true, "postalCode": "NY 12020", "type": "work"}], "relations": [{"type": "manager", "value": "Darren.Thomas@globalfoundries.com"}], "emails": [{"type": "custom", "primary": true, "address": "thomas.polen@globalfoundries.com"}], "name": {"fullName": "Thomas Polen", "givenName": "Thomas", "familyName": "Polen"}}, {"organizations": [{"name": "AM Technical Solutions", "title": "Contractor", "customType": "work", "primary": true, "location": "J10369", "department": "SS TOOL INSTALL"}], "primaryEmail": "timothy.ellis@globalfoundries.com", "addresses": [{"locality": "Malta", "country": "United States", "region": "New York", "formatted": "Malta New York NY 12020 United States", "primary": true, "postalCode": "NY 12020", "type": "work"}], "phones": [{"type": "work", "value": "69767"}, {"type": "home", "value": "+15183059767"}], "relations": [{"type": "manager", "value": "Darren.Thomas@globalfoundries.com"}], "emails": [{"type": "custom", "primary": true, "address": "timothy.ellis@globalfoundries.com"}], "name": {"fullName": "Timothy Ellis", "givenName": "Timothy", "familyName": "Ellis"}}, {"organizations": [{"name": "AM Technical Solutions", "title": "Contractor", "customType": "work", "primary": true, "location": "J10352", "department": "SS TOOL INSTALL"}], "primaryEmail": "toby.abeyta@globalfoundries.com", "addresses": [{"locality": "Malta", "country": "United States", "region": "New York", "formatted": "Malta New York NY 12020 United States", "primary": true, "postalCode": "NY 12020", "type": "work"}], "phones": [{"type": "work", "value": "69763"}, {"type": "home", "value": "+15183059763"}], "relations": [{"type": "manager", "value": "Darren.Thomas@globalfoundries.com"}], "emails": [{"type": "custom", "primary": true, "address": "toby.abeyta@globalfoundries.com"}], "name": {"fullName": "Toby Abeyta", "givenName": "Toby", "familyName": "Abeyta"}}, {"organizations": [{"name": "FST Technical Services", "title": "Contractor", "customType": "work", "primary": true, "location": "J10449", "department": "SS TOOL INSTALL"}], "primaryEmail": "todd.ray@globalfoundries.com", "addresses": [{"locality": "Malta", "country": "United States", "region": "New York", "formatted": "Malta New York NY 12020 United States", "primary": true, "postalCode": "NY 12020", "type": "work"}], "phones": [{"type": "work", "value": "66160"}, {"type": "home", "value": "+15183056160"}], "relations": [{"type": "manager", "value": "Darren.Thomas@globalfoundries.com"}], "emails": [{"type": "custom", "primary": true, "address": "todd.ray@globalfoundries.com"}], "name": {"fullName": "Todd Ray", "givenName": "Todd", "familyName": "Ray"}}, {"organizations": [{"name": "AM Technical Solutions", "title": "Contractor", "customType": "work", "primary": true, "location": "J10396", "department": "SS TOOL INSTALL"}], "primaryEmail": "tony.padilla@globalfoundries.com", "addresses": [{"locality": "Malta", "country": "United States", "region": "New York", "formatted": "Malta New York NY 12020 United States", "primary": true, "postalCode": "NY 12020", "type": "work"}], "phones": [{"type": "work", "value": "61750"}, {"type": "home", "value": "+15183051750"}], "relations": [{"type": "manager", "value": "Darren.Thomas@globalfoundries.com"}], "emails": [{"type": "custom", "primary": true, "address": "tony.padilla@globalfoundries.com"}], "name": {"fullName": "Tony Padilla", "givenName": "Tony", "familyName": "Padilla"}}, {"organizations": [{"name": "AM Technical Solutions", "title": "Contractor", "customType": "work", "primary": true, "location": "J10465T", "department": "SS TOOL INSTALL"}], "primaryEmail": "travis.weils@globalfoundries.com", "addresses": [{"locality": "Malta", "country": "United States", "region": "New York", "formatted": "Bldg: Malta Malta New York NY 12020 United States", "primary": true, "streetAddress": "Bldg: Malta", "postalCode": "NY 12020", "type": "work"}], "phones": [{"type": "work", "value": "61028"}, {"type": "home", "value": "+15183051028"}], "thumbnailPhotoUrl": "https://plus.google.com/_/focus/photos/public/AIbEiAIAAABDCK3m-tD0p6XzdiILdmNhcmRfcGhvdG8qKGUzYjhiOWIzOGZlYmUzM2Y3YzZhMzc4MzM2NjYwMWJiMjRlMzdkM2QwAfL6fbi_HlXDtNnlUTaQSzHz7cV6", "relations": [{"type": "manager", "value": "Darren.Thomas@globalfoundries.com"}], "emails": [{"type": "custom", "primary": true, "address": "travis.weils@globalfoundries.com"}], "name": {"fullName": "Travis Weils", "givenName": "Travis", "familyName": "Weils"}}, {"organizations": [{"name": "AM Technical Solutions", "title": "Contractor", "customType": "work", "primary": true, "location": "J10474T", "department": "SS TOOL INSTALL"}], "primaryEmail": "tyler.lafountaine@globalfoundries.com", "addresses": [{"locality": "Malta", "country": "United States", "region": "New York", "formatted": "Bldg: Malta Malta New York NY 12020 United States", "primary": true, "streetAddress": "Bldg: Malta", "postalCode": "NY 12020", "type": "work"}], "phones": [{"type": "work", "value": "69769"}, {"type": "home", "value": "+15183059769"}], "thumbnailPhotoUrl": "https://plus.google.com/_/focus/photos/private/AIbEiAIAAABECOvFyNed5pmBqwEiC3ZjYXJkX3Bob3RvKihiZTYyMTdmNjkwNDc2NmQ3MTFlODY2MTIyZWU2ZmNiMjExZDVkYWFlMAEb_oDBfu0vwXCmchan0MkJBO1B4g", "relations": [{"type": "manager", "value": "Darren.Thomas@globalfoundries.com"}], "emails": [{"type": "custom", "primary": true, "address": "tyler.lafountaine@globalfoundries.com"}], "name": {"fullName": "Tyler LaFountaine", "givenName": "Tyler", "familyName": "LaFountaine"}}, {"organizations": [{"name": "AM Technical Solutions", "title": "Contractor", "customType": "work", "primary": true, "location": "J10353", "department": "SS TOOL INSTALL"}], "primaryEmail": "vincent.murphy@globalfoundries.com", "addresses": [{"locality": "Malta", "country": "United States", "region": "New York", "formatted": "Malta New York NY 12020 United States", "primary": true, "postalCode": "NY 12020", "type": "work"}], "phones": [{"type": "work", "value": "61764"}, {"type": "home", "value": "+15183051764"}], "relations": [{"type": "manager", "value": "Darren.Thomas@globalfoundries.com"}], "emails": [{"type": "custom", "primary": true, "address": "vincent.murphy@globalfoundries.com"}], "name": {"fullName": "Vincent Murphy", "givenName": "Vincent", "familyName": "Murphy"}}, {"organizations": [{"department": "SS TOOL INSTALL", "customType": "work", "primary": true, "name": "AM Technical Solutions", "title": "Contractor"}], "primaryEmail": "vincent.ulibarri@globalfoundries.com", "addresses": [{"locality": "Malta", "country": "United States", "region": "New York", "formatted": "Malta New York NY 12020 United States", "primary": true, "postalCode": "NY 12020", "type": "work"}], "thumbnailPhotoUrl": "https://plus.google.com/_/focus/photos/private/AIbEiAIAAABDCMuCi7ST39zEUCILdmNhcmRfcGhvdG8qKDkyZDNhMWM5ZTgyZjNmMzA5MDM1ZGEzZWE1MWQ0ZGQ2NTVmOWU0NGIwAcYiPRK7HAaT0AGG1OqnwgH9jSsI", "relations": [{"type": "manager", "value": "Darren.Thomas@globalfoundries.com"}], "emails": [{"type": "custom", "primary": true, "address": "vincent.ulibarri@globalfoundries.com"}], "name": {"fullName": "Vincent Ulibarri", "givenName": "Vincent", "familyName": "Ulibarri"}}, {"organizations": [{"department": "SS TOOL INSTALL", "customType": "work", "primary": true, "name": "FST Technical Service", "title": "Contractor"}], "primaryEmail": "vito.iannitti@globalfoundries.com", "addresses": [{"locality": "Malta", "country": "United States", "region": "New York", "formatted": "Malta New York NY 12020 United States", "primary": true, "postalCode": "NY 12020", "type": "work"}], "thumbnailPhotoUrl": "https://plus.google.com/_/focus/photos/public/AIbEiAIAAABECMyr-dTfxIbisgEiC3ZjYXJkX3Bob3RvKig2NzU4N2I1OWY5YTBkNGViZWI1MTVmNDEyYjUxNWU1YmQyYzM5NGZkMAEVbN5v6AKyFc4GKeOXvPL7bgw_Ew", "relations": [{"type": "manager", "value": "Darren.Thomas@globalfoundries.com"}], "emails": [{"type": "custom", "primary": true, "address": "vito.iannitti@globalfoundries.com"}], "name": {"fullName": "Vito Iannitti", "givenName": "Vito", "familyName": "Iannitti"}}, {"organizations": [{"name": "AM Technical Solutions", "title": "Contractor", "customType": "work", "primary": true, "location": "J10428", "department": "SS TOOL INSTALL"}], "primaryEmail": "wanda.sowizdrzal@globalfoundries.com", "addresses": [{"locality": "Malta", "country": "United States", "region": "New York", "formatted": "Bldg: Malta Malta New York NY 12020 United States", "primary": true, "streetAddress": "Bldg: Malta", "postalCode": "NY 12020", "type": "work"}], "phones": [{"type": "work", "value": "67872"}, {"type": "home", "value": "+15183057872"}, {"type": "mobile", "value": "+15184955204"}], "thumbnailPhotoUrl": "https://plus.google.com/_/focus/photos/public/AIbEiAIAAABDCPCvq67Zp-fgICILdmNhcmRfcGhvdG8qKDQ3NDI3YmNlMWY0MjAzMzM5MmFjM2NjNGRlZDJiMzJkYjY2MWMxYmEwAQxihO-m__vQvxOweGqOvvqM8r6p", "relations": [{"type": "manager", "value": "Darren.Thomas@globalfoundries.com"}], "emails": [{"type": "custom", "primary": true, "address": "wanda.sowizdrzal@globalfoundries.com"}], "name": {"fullName": "Wanda Sowizdrzal", "givenName": "Wanda", "familyName": "Sowizdrzal"}}, {"organizations": [{"name": "AM Technical Solutions", "title": "Contractor", "customType": "work", "primary": true, "location": "J10484T", "department": "SS TOOL INSTALL"}], "primaryEmail": "warren.jaderlund@globalfoundries.com", "addresses": [{"locality": "Malta", "country": "United States", "region": "New York", "formatted": "Malta New York NY 12020 United States", "primary": true, "postalCode": "NY 12020", "type": "work"}], "phones": [{"type": "work", "value": "66284"}, {"type": "home", "value": "+15183056284"}], "relations": [{"type": "manager", "value": "Darren.Thomas@globalfoundries.com"}], "emails": [{"type": "custom", "primary": true, "address": "warren.jaderlund@globalfoundries.com"}], "name": {"fullName": "Warren Jaderlund", "givenName": "Warren", "familyName": "Jaderlund"}}, {"organizations": [{"name": "AM Technical Solutions", "title": "Contractor", "customType": "work", "primary": true, "location": "J10374", "department": "SS TOOL INSTALL"}], "primaryEmail": "warren.tingler@globalfoundries.com", "addresses": [{"locality": "Malta", "country": "United States", "region": "New York", "formatted": "Malta New York NY 12020 United States", "primary": true, "postalCode": "NY 12020", "type": "work"}], "phones": [{"type": "work", "value": "66867"}, {"type": "home", "value": "+15183056867"}], "relations": [{"type": "manager", "value": "Darren.Thomas@globalfoundries.com"}], "emails": [{"type": "custom", "primary": true, "address": "warren.tingler@globalfoundries.com"}], "name": {"fullName": "Warren Tingler", "givenName": "Warren", "familyName": "Tingler"}}, {"organizations": [{"name": "AM Technical Solutions", "title": "Contractor", "customType": "work", "primary": true, "location": "J10424", "department": "SS TOOL INSTALL"}], "primaryEmail": "william.salgado@globalfoundries.com", "addresses": [{"locality": "Malta", "country": "United States", "region": "New York", "formatted": "Malta New York NY 12020 United States", "primary": true, "postalCode": "NY 12020", "type": "work"}], "phones": [{"type": "work", "value": "61563"}, {"type": "home", "value": "+15183051563"}], "relations": [{"type": "manager", "value": "Darren.Thomas@globalfoundries.com"}], "emails": [{"type": "custom", "primary": true, "address": "william.salgado@globalfoundries.com"}], "name": {"fullName": "William Salgado", "givenName": "William", "familyName": "Salgado"}}, {"organizations": [{"name": "FST Technical Service", "title": "Contractor", "customType": "work", "primary": true, "location": "J10432", "department": "SS TOOL INSTALL"}], "primaryEmail": "william.sherman@globalfoundries.com", "addresses": [{"locality": "Malta", "country": "United States", "region": "New York", "formatted": "Malta New York NY 12020 United States", "primary": true, "postalCode": "NY 12020", "type": "work"}], "phones": [{"type": "work", "value": "66079"}, {"type": "home", "value": "+15183056079"}], "relations": [{"type": "manager", "value": "Darren.Thomas@globalfoundries.com"}], "emails": [{"primary": true, "address": "william.sherman@globalfoundries.com"}], "name": {"fullName": "William Sherman", "givenName": "William", "familyName": "Sherman"}}, {"organizations": [{"name": "AM Technical Solutions", "title": "Contractor", "customType": "work", "primary": true, "location": "M101", "department": "SS TOOL INSTALL"}], "primaryEmail": "william.vantassell@globalfoundries.com", "addresses": [{"locality": "Malta", "country": "United States", "region": "New York", "formatted": "Malta New York NY 12020 United States", "primary": true, "postalCode": "NY 12020", "type": "work"}], "phones": [{"type": "work", "value": "69776"}, {"type": "home", "value": "+15183059776"}], "relations": [{"type": "manager", "value": "Darren.Thomas@globalfoundries.com"}], "emails": [{"type": "custom", "primary": true, "address": "william.vantassell@globalfoundries.com"}], "name": {"fullName": "William Vantassell", "givenName": "William", "familyName": "Vantassell"}}, {"organizations": [{"name": "AM Technical Solutions", "title": "Contractor", "customType": "work", "primary": true, "location": "J10390", "department": "SS TOOL INSTALL"}], "primaryEmail": "woodrick.fisher@globalfoundries.com", "addresses": [{"locality": "Malta", "country": "United States", "region": "New York", "formatted": "Malta New York NY 12020 United States", "primary": true, "postalCode": "NY 12020", "type": "work"}], "phones": [{"type": "work", "value": "61084"}, {"type": "home", "value": "+15183051084"}], "relations": [{"type": "manager", "value": "Darren.Thomas@globalfoundries.com"}], "emails": [{"type": "custom", "primary": true, "address": "woodrick.fisher@globalfoundries.com"}], "name": {"fullName": "Woodrick Fisher", "givenName": "Woodrick", "familyName": "Fisher"}}], "isAdmin": false, "etag": "\"CAca-r_AOtaWjq33oriROyUcbFY/1_uGoXs56FYNT2Z9MI-1COl3i60\"", "lastLoginTime": "2015-07-24T17:38:18.000Z", "orgUnitPath": "/Locations/LFC", "agreedToTerms": true, "externalIds": [{"type": "organization", "value": "455792"}], "ipWhitelisted": false, "kind": "admin#directory#user", "isMailboxSetup": true, "emails": [{"type": "custom", "primary": true, "address": "darren.thomas@globalfoundries.com"}], "organizations": [{"name": "GLOBALFOUNDRIES", "title": "Mgr Facilities Engn", "customType": "work", "primary": true, "location": "J10355", "department": "SS TOOL INSTALL"}], "primaryEmail": "darren.thomas@globalfoundries.com", "name": {"fullName": "Darren Thomas", "givenName": "Darren", "familyName": "Thomas"}, "creationTime": "2014-09-20T20:25:48.000Z", "changePasswordAtNextLogin": false, "customerId": "C048evwmv"}], "emails": [{"type": "custom", "primary": true, "address": "christopher.merrill@globalfoundries.com"}], "name": {"fullName": "Christopher Merrill", "givenName": "Christopher", "familyName": "Merrill"}}